_id,全国地方公共団体コード,ID,地方公共団体名,名称,名称_カナ,名称_英字,名称_通称,POIコード,外部識別子,外部識別子の値,所在地_全国地方公共団体コード,町字ID,所在地_連結表記,所在地_都道府県,所在地_市区町村,所在地_町字,所在地_番地以下,建物名等(方書),緯度,経度,高度の種別,高度の値,電話番号,内線番号,連絡先メールアドレス,連絡先FormURL,連絡先備考（その他、SNSなど）,郵便番号,法人番号,団体名,利用可能曜日,開始時間,終了時間,利用可能時間特記事項,説明,車椅子可,車椅子貸出,ツエ貸出,バリアフリートイレ,スロープ、エレベータ、エスカレータ,点字ブロック等の移動支援,点字や読上による支援,盲導犬・介助犬、聴導犬同伴,字幕,筆談対応,優先駐車場,オストメイト対応トイレ,授乳室,おむつ替えコーナー,飲食可否,ベビーカー貸出,ベビーカー利用,URL,画像,画像_ライセンス,備考
1,172014,AA0000001090,石川県金沢市,金沢市埋蔵文化財センター,カナザワシマイゾウブンカザイセンター,"",金沢市埋蔵文化財センター,801,"","",172014,"",石川県金沢市上安原南60番地,石川県,金沢市,上安原南,60番地,"",36.557362,136.591423,"","",076-269-2451,"","","","",-,4000020172014,金沢市,火水木金土日,09:30,17:00,休館日:月曜日（祝日の場合は次の平日）、年末年始,金沢市内には縄文時代から江戸時代までの数多くの遺跡が分布しています。遺跡や出土した遺物は、私たちの地域の歴史文化を知る上で貴重な歴史遺産です。金沢埋蔵文化財センターは、市内の発掘調査で出土した遺物の整理・記録を専門に行う施設です。館内では出土遺物の水洗いや復元、実測などの整理作業を見学できるほか、中屋サワ遺跡出土品（重要文化財）やチカモリ遺跡出土柱根（石川県指定文化財）を中心とした展示室『金沢縄文ワールド』があり、『縄文体験コーナー』では勾玉づくりなどさまざまな古代体験ができます。,"","","","","","","","","","","","","","","","","",https://www4.city.kanazawa.lg.jp/bunka_sports_kanko/rekishi_bunkazai/6/4/18140.html,"","",""
2,172014,AA0000001091,石川県金沢市,金沢市埋蔵文化財収蔵庫,カナザワシマイゾウブンカザイシュウゾウコ,"",金沢市埋蔵文化財収蔵庫,801,"","",172014,"",石川県金沢市新保本5丁目48番地,石川県,金沢市,新保本5丁目,48番地,"",36.556019,136.605232,"","",076-240-2371,"","","","",-,4000020172014,金沢市,火水木金土日,09:30,16:30,休館日:月曜日（祝日の場合は次の平日）、年末年始、展示替休館,国指定史跡チカモリ遺跡を整備したチカモリ遺跡公園に隣接して建てられています。館内にはチカモリ遺跡から出土した柱根(石川県指定文化財)をはじめ、縄文時代から江戸時代にかけての市内の遺跡から出土した土器や石器などが展示されており、自由に見学することができます。,"","","","","","","","","","","","","","","","","",https://www4.city.kanazawa.lg.jp/bunka_sports_kanko/rekishi_bunkazai/6/4/18159.html,"","",""
3,172014,AA0000001092,石川県金沢市,金沢歌劇座,カナザワカゲキザ,"",歌劇座,1016,"","",172014,"",石川県金沢市下本多町六番丁27,石川県,金沢市,下本多町六番丁,2-7,"",36.55886,136.658646,"","",076-220-2501,"","","","",920-0993,7220005004521,公益財団法人金沢芸術創造財団,月火木金土日,09:00,22:00,休館日:原則第1･3水曜日（祝日の場合はその翌日）年末年始(12月29日から1月3日),"1,919席のホールではコンサート、オーケストラ、オペラなど大規模な催事にご利用いただけます。また、270人収容可能な大集会室や数多くの会議室を完備。同時通訳設備（３ヶ国語対応）を利用し、コンベンション等の開催にも対応可能です。",可,有,"",有,有,有,"",有,無,有,有,有,"","","",無,"",https://www.kagekiza.gr.jp/,"","",""
4,172014,AA0000001093,石川県金沢市,金沢市文化ホール,カナザワシブンカホール,"",文化ホール,1016,"","",172014,"",石川県金沢市高岡町15-1,石川県,金沢市,高岡町,15-1,"",36.566839,136.652794,"","",076-223-1221,"","","","",-,7220005004521,公益財団法人金沢芸術創造財団,月火木金土日,09:00,22:00,休館日:原則第2･4水曜日（休日のときはその翌日）年末年始(12月29日から1月3日),899席の多目的ホールでは、コンサート、演劇、学会などジャンルを問わず幅広くお使いいただけます。シアター形式で400名の収容可能な大集会室や国際会議場として利用可能な99席の大会議室、その他、楽屋、練習室、会議室、展示ギャラリーなどを完備しています。,可,有,無,有,有,無,無,有,無,無,有,有,無,無,可,無,有,https://www.bunka-h.gr.jp/,"","",""
5,172014,AA0000001094,石川県金沢市,金沢市アートホール,カナザワシアートホール,KANAZAWA ART HALL,アートホール,1016,"","",172014,"",石川県金沢市本町2-15-1,石川県,金沢市,本町2,15-1,ポルテ金沢6F,36.57634,136.649433,"","",076-224-1660,"","","","",920-0853,7220005004521,公益財団法人金沢芸術創造財団,月火木金土日,09:00,22:00,休館日:原則第2・4水曜日（祝日の場合はその翌日）年末年始(12月29日から1月3日),“豊かで調和のとれた音を響かせる”という考え方を基本に設計されたシューボックス型の本格的な音楽ホールです。308席のホールは、アーティストの感性と聴衆の興奮が一体となって生み出す創造空間を提供しています。,可,有,無,有,有,無,無,可,無,可+AT6,無,有,無,有（バリアフリートイレ内）,可（但しホール客席内は不可）,無,無,https://www.art-h.gr.jp/,"","",""
6,172014,AA0000001072,石川県金沢市,農業センター,ノウギョウセンター,"",農業センター,1306,"","",172014,"",石川県金沢市下安原町東1471,石川県,金沢市,下安原町,東1471番地,"",36.57255,136.574134,"","",076-249-2744,"",nougyou_c@city.kanazawa.lg.jp,"","",-,4000020172014,農業センター,月火水木金土,08:30,17:15,閉所日:日曜日、国民の祝日、年末年始（12月29日から1月3日）,金沢市農業センターは、都市型農業の振興と産地の育成を図るため、新技術の普及や地域に密着した産地づくりを強化するとともに、研修や交流の場として、農家等をはじめ広く市民が利用できる施設として、平成6年4月に開設されました。,可,無,無,有,有（管理棟玄関スロープ）,無,無,無,無,無,有（加工調理実習館前２台分）,無,無,無,可,無,有,https://www4.city.kanazawa.lg.jp/soshikikarasagasu/nogyocenter/gyomuannai/1/1/1/6658.html,"","",研修室等施設の使用を希望される場合は、ホームページの「農業センター施設の予約方法について」をご確認いただき、事前にお申込みください。
7,172014,AA0000001073,石川県金沢市,金沢湯涌みどりの里,カナザワユワクミドリノサト,"",金沢湯涌みどりの里,1305,"","",172014,"",石川県金沢市湯涌荒屋町47,石川県,金沢市,湯涌荒屋町,47番地,"",36.490392,136.75469,"","",076-235-8033,"",midorinosato@city.kanazawa.lg.jp,"","",-,4000020172014,金沢湯涌みどりの里,月水木金土日,09:00,17:00,休館日:火曜日（祝日にあたる場合は翌日）、年末年始（12/29～1/3）,湯涌の緑豊かな自然の中で、農業に親しむことができます。園内では市民農園や果樹園での農業体験をはじめ、交流施設でのソバ打ち体験、農産加工品の手作り体験等を開催しています。また、4月～12月の毎週水・日曜日には湯涌朝市が開催され、地元農家の手による新鮮な野菜や加工品を販売しています。,"",無,無,有,無,無,無,無,"",有,無,"","",有,可,無,可,https://www4.city.kanazawa.lg.jp/soshikikarasagasu/nogyosuisanshinkoka/gyomuannai/3/1/2/5179.html,"","",農産加工室等をご利用の場合は、事前にお申込みください。
8,172014,AA0000001068,石川県金沢市,ITビジネスプラザ武蔵,ITビジネスプラザムサシ,IT Business Plaza Musashi,ITビジネスプラザ武蔵,1306,"","",172014,"",石川県金沢市武蔵町14-31,石川県,金沢市,武蔵町,14-31,"",36.571186869723284,136.65471106767654,"","",(076)224-6340,"",info@bp-musashi.jp,"","",920-0855,4000020172014,ITビジネスプラザ武蔵,月火水木金土日,10:00,22:00,休館日:年末年始（12月29日～1月3日）,映像、デザイン、ITなどのクリエイティブ産業分野で、これから起業しようとする方や創業間もない方を、ハード・ソフト両面でサポートするインキュベーション施設です。撮影スタジオや編集室、研修室、会議室、交流室などの貸室もあり、ミーティングやセミナーなど、ビジネスを中心とした多方面で活用できる施設です。,可,無,無,有,有,無,無,無,無,無,無,無,無,無,有,無,無,https://www.bp-musashi.jp/,"","",""
9,172014,AA0000001069,石川県金沢市,金沢未来のまち創造館,カナザワミライノマチソウゾウカン,KANAZAWA MIRAI NO MACHI CREATION CENTER,金沢未来のまち創造館,1306,"","",172014,"",石川県金沢市野町3-11-1,石川県,金沢市,野町,3-11-1,"",36.5527368,136.6484803,"","",(076)280-3115,"",info@mirai-nomachi.jp,"","",921-8031,4000020172014,金沢未来のまち創造館,月火水木金土日,09:00,21:00,休館日:年末年始（12月29日～1月3日）,金沢未来のまち創造館は、「スタートアップ・新ビジネス創出」、「子供の独創力育成」、「食の価値創造」を３つの柱に事業活動を展開し、金沢市における新たな産業の創出と未来で活躍する人材の輩出を図る価値創造拠点施設です。,可,有,無,有,有,無,無,無,無,無,有,有,無,有,有,無,無,https://www.mirai-nomachi.jp/,"","",""
10,172014,AA0000001070,石川県金沢市,金沢市異業種研修会館,カナザワシイギョウシュケンシュウカイカン,Kanazawa City Different Industry Training Hall,異業種研修会館,1306,"","",172014,"",石川県金沢市打木町東1400番地,石川県,金沢市,打木町東,1400番地,金沢市異業種研修会館,36.566717,136.574515,"","",076-240-1934,"",igyousyu@arrow.ocn.ne.jp,"","",9200377,7220005001733,安原工業団地協同組合,月火水木金土日,09:00,21:00,休館日:年末年始（12月29日～1月3日）,安原異業種工業団地内にある中小企業等の交流・研修施設で、会議や各種研修の場としてご利用いただけます。会館ではものづくり支援コーナーが設置されていますので、製品開発に関することなどお気軽にご相談ください。（駐車１30台可）,"","","","","","","","","","",有,"","","","","","",https://www4.city.kanazawa.lg.jp/soshikikarasagasu/shokogyoshinkoka/gyomuannai/1/2/6572.html,https://www4.city.kanazawa.lg.jp/material/images/group/28/igyo_ph1.jpg,CC BY,""
11,172014,AA0000001071,石川県金沢市,金沢市ものづくり会館,カナザワシモノヅクリカイカン,Kanazawa City Manufacturing Center,ものづくり会館,1306,"","",172014,"",石川県金沢市粟崎町4丁目80番地1,石川県,金沢市,粟崎町4丁目,80番地1,金沢市ものづくり会館,36.62846,136.620258,"","",076-255-1518,"",monozukuri@bz03.plala.or.jp,"","",9200226,7220005001675,住吉工業協同組合,月火水木金土日,09:00,21:00,休館日:年末年始（12月29日～1月3日）,金沢港に近い粟崎町にあるものづくり企業の交流・研修施設です。会議室や研修室のほか、ふれあいサロンや多目的ホール、グラウンドゴルフ場もあり、一般の方も広くご利用できます。（駐車１６１台可）,"","","","","","","","","","",有,"","","","","","",https://www4.city.kanazawa.lg.jp/soshikikarasagasu/shokogyoshinkoka/gyomuannai/1/2/6579.html,https://www4.city.kanazawa.lg.jp/material/images/group/28/syoumen2.jpg,CC BY,シャワー設備あり
12,172014,AA0000000908,石川県金沢市,金沢市女性センター,カナザワシジョセイセンター,Kanazawa City Women's Center,金沢市女性センター,1305,"","",172014,"",石川県金沢市三社町1-44（石川県女性センター内 3階）,石川県,金沢市,三社町,1-44,石川県女性センター3階,36.570577,136.645378,"","",076-223-1265,"","","","",-,4000020172014,金沢市,月火水木金土日,09:00,21:00,休館日:国民の祝日及び12月29日から1月3日,女性の自立と社会参画を支援し、男女共同参画を推進する拠点施設です。,"","","","","","","","","","","","","","","","","",https://www4.city.kanazawa.lg.jp/soshikikarasagasu/kanazawashijoseicenter/gyomuannai/1/1/7165.html,"","",事前登録必要
13,172014,AA0000000902,石川県金沢市,長土塀青少年交流センター,ナガドヘセイショウネンコウリュウセンター,Nagadobe Youth Exchange Center,"",1305,"","",172014,"",石川県金沢市長町3-3-3,石川県,金沢市,長町,3-3-3,"",36.567261,136.645849,"","",076-220-2102,"","","","",-,4000020172014,金沢市,火水木金土日,09:00,21:00,休館日:月曜日（休日の場合は、その日の直後の休日以外の日）、年末年始（12月29日-1月3日）,次代を担う青少年の主体的な学び並びに青少年相互及び青少年と他の世代との交流を促進することを通じて、健全で活力に満ち、創造性豊かな青少年の育成を図るために青少年の活動拠点として設置された施設です。,可,有,無,有,有,有,有,"","","","",有,有,有,"",有,可,https://www4.city.kanazawa.lg.jp/soshikikarasagasu/nagadobeiseishonenkoryucenter/gyomuannai/1/1/7783.html,"","",事前登録必要
14,172014,AA0000000906,石川県金沢市,娚杉少年の森,メオトスギショウネンノモリ,Meotosugi Boy's Forest,"",1152,"","",172014,"",石川県金沢市娚杉町ロ2-3,石川県,金沢市,娚杉町,ロ2-3,"",36.473577,136.733984,"","",076-229-1627,"","","","",-,4000020172014,金沢市,"","","",毎年4月1日から11月30日まで,青少年の皆さんが、豊かな自然の中で大勢の仲間とともに活動できる施設です。野外宿泊等の経験を通じて、創造の喜びや自然の恵みを実感することができます。主体的な活動の中で、連帯感や協調性を養い、忍耐力と指導力を身につけることで、心身ともにたくましく育つことを願ってつくられました。,"","","","","","","","","","","","","","","","","",https://www4.city.kanazawa.lg.jp/soshikikarasagasu/nagadobeiseishonenkoryucenter/gyomuannai/1/1/7784.html,"","",事前に長土塀青少年交流センターまで申し込みが必要、施設の電話番号は管理人在中時のみ利用可能
15,172014,AA0000000907,石川県金沢市,土子原こども野外広場,ツチコハラコドモヤガイヒロバ,Tsuchikohara Children's Outdoor Plaza,"",1152,"","",172014,"",石川県金沢市曲子原ソ13,石川県,金沢市,曲子原,ソ13,"",36.607853,136.766834,"","","","","","","",-,4000020172014,金沢市,"","","",毎年4月1日から11月30日まで,広場でのキャンプや旧小学校校舎での宿泊もできる青少年施設です。小・中学校や青少年団体の野外活動の場として、またはハイキングの基地として利用できます。広いグラウンドや屋根付きの炊事場など、開放的な自然の中で、快適にキャンプを楽しむことができます。,"","","","","","","","","","","","","","","","","",https://www4.city.kanazawa.lg.jp/soshikikarasagasu/nagadobeiseishonenkoryucenter/gyomuannai/1/1/7785.html,"","",事前に長土塀青少年交流センターまで申し込みが必要
17,172014,AA0000000909,石川県金沢市,金沢ボランティア大学校,カナザワボランティアダイガクコウ,KANAZAWA INSTITUTE OF VOLUNTARY SERVICE,金沢ボラ大,1514,"","",172014,"",石川県金沢市彦三町1-15-5,石川県,金沢市,彦三町,1-15-5,中央公民館彦三館１階,36.574714,136.659638,"","",076-233-2456,"",kivs@m2.spacelan.ne.jp,"","",920-0901,5220005007377,公益社団法人金沢ボランティア大学校,火水木金土日,09:00,17:45,休館日:日・月曜日（月曜日が休日の場合はその直後の平日）・祝日、年末年始（１２月２９日～１月３日）,ボランティアに関する基本や幅広い視野を身につけ、福祉・国際・まちづくり等の分野で継続的にボランティアとして活躍できる人材を養成することを目的に開校しています。,"","","","","","","","","","","","","","","","","",https://kivs.localinfo.jp,"","",毎年受講生を募集しています。募集期間は3月～4月初旬です。受講期間は５月～2月です。
18,172014,AA0000000910,石川県金沢市,近江町交流プラザ,オウミチョウコウリュウプラザ,Omicho Exchange Plaza,近江町交流プラザ,1305,"","",172014,"",石川県金沢市青草町88,石川県,金沢市,青草町,88,近江町いちば館3・4階,36.571551,136.656072,"","",076-260-6722,"","","","",-,4000020172014,金沢市,月火木金土日,09:00,21:00,休館日:水曜日（水曜日が休日のときは、次の平日）、年末年始（１２月２９日～１月３日）,まちなかにおける市民の学習の場、親子の集いの場及び食育の推進に関する活動の場として広く市民の利用に供し、多様な世代の交流の促進とまちなかの賑わいを創出するため、平成21年4月に開設された施設です。市民の学習、親子の集い及び食育推進の場として、まなびぃ広場、ちびっこ広場、食育広場があります。,"","","","","","","","","","","","","","","","","",https://www4.city.kanazawa.lg.jp/soshikikarasagasu/omichokoryuplaza/gyomuannai/1/1/7141.html,"","",建物の左右にあるエレベータをご利用ください。右側のエレベータは、午前10時～午後6時の間だけ3階にとまります。来館の際は、公共交通機関のご利用にご協力をお願いします。（お車でお越しの場合は、近江町いちば館駐車場が便利です。尚、駐車料金の割引等はいたしておりませんのでご了承ください。）
19,172014,AA0000000918,石川県金沢市,金沢職人大学校,カナザワショクニンダイガッコウ,"",職人大学校,1514,"","",172014,"",石川県金沢市大和町1-1,石川県,金沢市,大和町,1-1,"",36.568451,136.63884,"","",076-265-8311,"","","","",-,4220005007353,公益社団法人金沢職人大学校,月火水木金,09:00,17:00,祝日除く,金沢に残る伝統的で高度な職人の技の伝承と人材を育成するためのプロの職人を対象にした学校です。,各工房前通路の通行及びトイレ使用可、室内使用不可,無,無,有,スロープ有、エレベータ無、エスカレータ無,無,無,無,無,無,無,無,無,無,否,無,無,http://www.k-syokudai.jp/,"","",""
20,172014,AA0000000911,石川県金沢市,玉川図書館,タマガワトショカン,Tamagawa City Library,玉川図書館,1512,"","",172014,"",石川県金沢市玉川町2-20,石川県,金沢市,玉川町,2-20,"",36.569638,136.651749,"","",076-221-1960,"","","","",-,4000020172014,金沢市,火水木金土日,10:00,19:00,休館日:月曜（祝日は開館）、土曜・日曜・祝日の開館時間：午前10時～午後５時、年末年始（12/29～1/4）、特別整理期間,駐車場22台（内2台が障害者等専用）、地下1階：一般書庫、 1階 ：公開ホール（一般開架図書コーナー、ユースライブラリーコーナー）、休憩ロビー、リスニングコーナー、集会室、 2 階 ：参考資料室、学習室、喫茶室、※近世史料館を併設,可,有,無,有,エレベーター１台有,点字ブロック有,無,可,無,無,有,無,無,無,不可,無,可,https://www.lib.kanazawa.ishikawa.jp/,"","",""
21,172014,AA0000000912,石川県金沢市,玉川こども図書館,タマガワコドモトショカン,Tamagawa Children’s Library,玉川こども図書館,1512,"","",172014,"",石川県金沢市玉川町2-2,石川県,金沢市,玉川町,2-2,"",36.5700731,136.651154,"","",076-262-0415,"","","","",-,4000020172014,金沢市,火水木金土日,10:00,17:00,休館日:月曜（祝日は開館）、年末年始（12/29～1/4）、特別整理期間,駐車場73台（内2台が障害者等専用）、地下1階：駐車場、閉架書庫、 1  階 ：木のひろば、はじめまして絵本の部屋、おはなしの部屋、ラウンジ、事務室、授乳室、テラス、2  階 ：図書コーナー、読書活動室、ボランティア活動室、メディアブース（DVD視聴用）、授乳室、テラス、 3  階 ：図書コーナー、学習コーナー、交流ホール（グループ活動室１、グループ活動室２）、集会室、準備室、テラス,可,有,無,有,エレベーター１台有,点字ブロック有,無,可,無,有,有,バリアフリートイレに設置,１階・２階に有,バリアフリートイレに有,１階ラウンジのみ有,有,可,https://www.lib.kanazawa.ishikawa.jp/,"","",""
22,172014,AA0000000913,石川県金沢市,玉川図書館城北分館,タマガワトショカンジョウホクブンカン,Tamagawa City Library Johoku Branch,城北分館,1512,"","",172014,"",石川県金沢市小坂町西８－１１　城北児童会館内,石川県,金沢市,小坂町,西8-11,城北児童会館内,36.589697,136.671914,"","",076-251-8284,"","","","",-,4000020172014,金沢市,火水木金土日,09:30,18:00,休館日:月曜、祝日（5/5は開館）、年末年始（12/29～1/4）、特別整理期間, 1  階 ：閲覧室,"","","","","","","","","","","","","","","","","",https://www.lib.kanazawa.ishikawa.jp/,"","",""
23,172014,AA0000000914,石川県金沢市,泉野図書館,イズミノトショカン,Izumino City Library,泉野図書館,1512,"","",172014,"",石川県金沢市泉野町4-22-22,石川県,金沢市,泉野町4丁目,22-22,"",36.544169,136.649239,"","",076-280-2345,"","","","",-,4000020172014,金沢市,月水木金土日,10:00,19:00,休館日:火曜（祝日は開館）、土曜・日曜・祝日の開館時間：午前10時～午後５時、年末年始（12/29～1/4）、特別整理期間,駐車場50台（内1台が障害者用）、その他屋外駐車場54台（内1台が障害者用）、地下2階：駐車場、地下1階：児童図書コーナー、メルヘンタワー、カンガルースポット、ファンタジーシアター、児童ＡＶコーナー、キッズスクエア、ブックピア、 1  階 ：一般図書コーナー、ヤング図書コーナー、レファレンスルーム、海外情報コーナー、国連寄託図書コーナー、一般ＡＶコーナー、対面朗読室、 2  階 ：オアシスホール、レクチャールーム、グループ活動室、アートロビー,可,有,無,有,エレベーター１台有,点字ブロック有,無,可,無,有,有,多目的トイレに設置,有,有,１階談話コーナーのみ可,有,可,https://www.lib.kanazawa.ishikawa.jp/,"","",""
24,172014,AA0000000915,石川県金沢市,金沢海みらい図書館,カナザワウミミライトショカン,Kanazawa Umimirai Library,金沢海みらい図書館,1512,"","",172014,"",石川県金沢市寺中町イ1-1,石川県,金沢市,寺中町,イ1-1,"",36.594339,136.604294,"","",076-266-2011,"","","","",-,4000020172014,金沢市,月火木金土日,10:00,19:00,休館日:水曜（祝日は開館）、土曜・日曜・祝日の開館時間：午前10時～午後５時、年末年始（12/29～1/4）、特別整理期間,駐車場100台（内3台が障害者用）、芝生広場、 1  階 ：総合カウンター、児童図書コーナー、交流ホール、集会室、グループ活動室、ギャラリー、 2  階 ：一般図書コーナー、レファレンス、生涯学習コーナー、インターネットコーナー、 3  階 ：地域情報フロア（日本海情報コーナー、ものづくり情報コーナー）　,可,有,無,有,エレベータ２台有（うち１台は事務用）,点字ブロック有,無,可,無,有,有,多目的トイレに設置,１階に有,１階多目的トイレ、２階男子・女子トイレに各１おむつ替え台有,１階ギャラリーのみ可,有,可,https://www.lib.kanazawa.ishikawa.jp/,"","",""
25,172014,AA0000000917,石川県金沢市,近世史料館,キンセイシリョウカン,The archives of modern history records,近世史料館,1512,"","",172014,"",石川県金沢市玉川町2-20,石川県,金沢市,玉川町,2-20,"",36.570041,136.651441,"","",076-221-4750,"","","","",-,4000020172014,金沢市,火水木金土日,10:00,19:00,休館日:月曜（祝日は開館）、土曜・日曜・祝日の開館時間：午前10時～午後５時、年末年始（12/29～1/4）、特別整理期間, 1  階 ：閲覧室、展示室、映像室、書庫、 2  階 ：補修作業室、書庫※玉川図書館に併設,可,有,無,有,無,点字ブロック有,無,可,無,無,有,無,無,無,不可,無,可,https://www2.lib.kanazawa.ishikawa.jp/kinsei/kinsei.htm,"","",""
27,172014,AA0000000840,石川県金沢市,野町公民館,ノマチコウミンカン,Nomachi Community Center ,"",1307,"","",172014,"",石川県金沢市野町３丁目11-１,石川県,金沢市,野町３丁目,11-１,"",36.553143,136.647406,"","",076-241-5971,"","","","",921-8031,"",金沢市野町公民館振興協力会,月火水木金,09:00,17:00,"休館日：土日、祝祭日、振替休日、お盆、年末年始（12月29日～1月3日）、館長が必要と認めた場合は臨時に開館または休館する場合あり
",各地区ごとに設置され、地域における学習の機会と場を提供しています。,可,有,"",有,"","","",可,"",可,有,"","",有,可,"",可,https://nomachi-k.wixsite.com/nomachi,"","",""
28,172014,AA0000000841,石川県金沢市,弥生公民館,ヤヨイコウミンカン,Yayoi Community Center ,"",1307,"","",172014,"",石川県金沢市弥生1-29-13,石川県,金沢市,弥生,1-29-13,"",36.549385,136.644678,"","",076-241-1329,"","","","",-,"",金沢市弥生公民館振興協力会,月火水木金,09:00,17:00,休館日は土日、祝祭日、振替休日、およびお盆期間・年末年始。夜間(19時～21時)と休館日の利用は許可を受けた場合のみ可能。,各地区ごとに設置され、地域における学習の機会と場を提供しています。,可,有,"",有,エレベーター有,"","",可,"",可,"","","","","","",可,https://yayoi-k.com/,"","",""
29,172014,AA0000000842,石川県金沢市,中村町公民館,ナカムラマチコウミンカン,Nakamuramachi Community Center ,"",1307,"","",172014,"",石川県金沢市中村町10-35,石川県,金沢市,中村町,10-35,"",36.559467,136.641945,"","",076-247-4447,"","","","",-,"",金沢市中村町公民館振興協力会,月火水木金,09:00,17:00,休館日:国民の祝日、振替休日、および年末年始（12月29日～１月３日）,各地区ごとに設置され、地域における学習の機会と場を提供しています。,可,"","","",スロープ有,"","",可,"","","","","","",可,"","","","","",""
30,172014,AA0000000843,石川県金沢市,城南公民館,ジョウナンコウミンカン,Jonan Community Center ,"",1307,"","",172014,"",石川県金沢市若草町22-12,石川県,金沢市,若草町,22-12,"",36.541761,136.661158,"","",076-247-7041,"","","","",-,"",金沢市城南公民館振興協力会,月火水木金土日,09:00,21:00,"休館日:第1,3,5日曜日、祝日、振替休日、年末年始（12月29日～１月３日）、館長が必要と認めた休館日",各地区ごとに設置され、地域における学習の機会と場を提供しています。,可,有,"","","","","",可,"",可,"","","","",可,"","",http://jounaninfo.blog.fc2.com/,"","",""
31,172014,AA0000000899,石川県金沢市,扇台公民館,オウギダイコウミンカン,Ogidai Community Center,"",1307,"","",172014,"",石川県金沢市馬替1-29-1,石川県,金沢市,馬替,1-29-1,"",36.5221237,136.624092,"","",076-296-8585,"","","","",-,"",金沢市扇台公民館振興協力会,月火水木金,09:00,17:30,"休館日:国民の祝日、年末年始、館長が必要と認めた場合は臨時に開館または休館する場合あり
申し込みがあった場合には、夜間及び土日も利用可
",各地区ごとに設置され、地域における学習の機会と場を提供しています。,可,"",有,有,"","","",可,"",可,有,"","","",可,"","",http://ougidai.jp/,"","",""
32,172014,AA0000000844,石川県金沢市,新竪町公民館,シンタテマチコウミンカン,Shintatemachi Community Center,"",1307,"","",172014,"",石川県金沢市鱗町62,石川県,金沢市,鱗町,62,"",36.555979,136.656861,"","",076-231-0258,"","","","",-,"",金沢市新竪町公民館振興協力会,月火水木金,09:00,17:00,"休館日：国民の祝日、年末年始（12月29日から1月3日）;館長が必要と認めた場合は臨時に開館または休館する場合あり。
申し込みがあった場合には、夜間及び土日も利用可",各地区ごとに設置され、地域における学習の機会と場を提供しています。,可,"","","","","","",可,"",可,"","","","",可,"","",https://sintate3.wixsite.com/sintate,"","",""
33,172014,AA0000000845,石川県金沢市,菊川町公民館,キクガワチョウコウミンカン,Kikugawacho Community Center ,"",1307,"","",172014,"",石川県金沢市菊川2-3-3,石川県,金沢市,菊川,2-3-3,"",36.551374,136.659961,"","",076-261-1769,"","","","",-,"",金沢市菊川町公民館振興協力会,月火水木金,09:00,17:30,休館日:土日、国民の祝日、振替休日、および年末年始（12月29日～１月３日）※申し込みがあった場合には休日でも開館している,各地区ごとに設置され、地域における学習の機会と場を提供しています。,"","","","","","","",可,"",可,"","","","",可,"","",https://kikugawacho-k.com/,"","",""
34,172014,AA0000000846,石川県金沢市,小立野公民館,コダツノコウミンカン,Kodatsuno Community Center,"",1307,"","",172014,"",石川県金沢市小立野4-7-51,石川県,金沢市,小立野,4-7-51,"",36.550971,136.679032,"","",076-221-0807,"","","","",-,"",金沢市小立野公民館振興協力会,月火水木金土,09:00,17:00,"休館日:土曜午後、日曜、市祭日、国民の祝日、振替休日、およびお盆（8月14～16日）年末年始（12月29日～１月３日）、館長が必要と認めた場合は臨時に開館または休館する場合あり、事前に申し込みがあった場合には木曜と第1,3,5日曜を除き21時まで利用可能。",各地区ごとに設置され、地域における学習の機会と場を提供しています。,"","","","","","","",可,"",可,"","","","",可,"","",http://www.spacelan.ne.jp/~kodatu-k/,"","",""
35,172014,AA0000000847,石川県金沢市,材木公民館,ザイモクコウミンカン,Zaimoku Community Center,"",1307,"","",172014,"",石川県金沢市材木町13-11,石川県,金沢市,材木町,13-11,"",36.566961,136.667532,"","",076-231-3689,"","","","",-,"",金沢市材木公民館振興協力会,月火水木金;第２第４土,09:00,17:00,"休館日：国民の祝日、年末年始（12月29日から1月3日）; 館長が必要と認めた場合は臨時に開館または休館する場合あり
申し込みがあった場合は夜間及び土日も利用可",各地区ごとに設置され、地域における学習の機会と場を提供しています。,"","",有,"","","","",可,"",可,"","","","",可,"",可,http://www.spacelan.ne.jp/~zaimoku-k/,"","",""
36,172014,AA0000000848,石川県金沢市,味噌蔵町公民館,ミソグラチョウコウミンカン,Misoguracho Community Center,"",1307,"","",172014,"",石川県金沢市兼六元町7-19,石川県,金沢市,兼六元町,7-19,"",36.56648,136.665274,"","",076-221-2573,"","","","",-,"",金沢市味噌蔵町公民館振興協力会,月火水木金,09:00,17:00,休館日：国民の祝日、年末年始（12月29日から1月3日）;館長が必要と認めた場合は臨時に開館または休館する場合あり,各地区ごとに設置され、地域における学習の機会と場を提供しています。,"","","","","","","",可,"",可,"","","","","","","",http://www.spacelan.ne.jp/~misogura-k/,"","",""
37,172014,AA0000000849,石川県金沢市,長町公民館,ナガマチコウミンカン,Nagamachi Community Center,"",1307,"","",172014,"",石川県金沢市長町2-2-16,石川県,金沢市,長町,2-2-16,"",36.563425,136.649214,"","",076-231-5730,"","","","",-,"",金沢市長町公民館振興協力会,月火水木金,09:00,17:30,"休館日:国民の祝日、振替休日、お盆、年末年始、館長が必要と認めた場合は臨時休館あり。
夜間(18時～21時)と休館日の利用は許可を受けた場合のみ可能。",各地区ごとに設置され、地域における学習の機会と場を提供しています。,可,"","","","","","",可,"",可,"","","","",可,"","",http://www.spacelan.ne.jp/~nagamati-k/,"","",""
38,172014,AA0000000850,石川県金沢市,松ヶ枝公民館,マツガエコウミンカン,Matsugae Community Center,"",1307,"","",172014,"",石川県金沢市高岡町7-23,石川県,金沢市,高岡町,7-23,"",36.569885,136.652844,"","",076-221-6005,"","","","",-,"",金沢市松ヶ枝公民館振興協力会,月火水木金,09:00,17:30,休館日:国民の祝日、振替休日、お盆および年末年始（12月28日正午～１月4日）,各地区ごとに設置され、地域における学習の機会と場を提供しています。,"","","","","","","",可,"","","","","","","","","",https://note.com/matsugae,"","",""
39,172014,AA0000000851,石川県金沢市,長土塀公民館,ナガドヘイコウミンカン,Nagadohe Community Center,"",1307,"","",172014,"",石川県金沢市長町3-3-3,石川県,金沢市,市長町,3-3-3,"",36.567244,136.645865,"","",076-265-7496,"","","","",-,"",金沢市長土塀公民館振興協力会,月火水木金土,09:00,17:00,"休館：日・国民の祝日、年末年始(12月29日～1月5日)、土曜日開館9：00～12：00、館長が必要と認めた場合は臨時に開館または休館する場合あり
",各地区ごとに設置され、地域における学習の機会と場を提供しています。,可,"","",有,スロープ有,"",車イス用トイレに音声案内有,可,"",可,有(併設館にあり),有,有,有,可,"","",http://www.spacelan.ne.jp/~nagadohe-k/,"","",""
40,172014,AA0000000852,石川県金沢市,芳斎公民館,ホウサイコウミンカン,Hosai Community Center,"",1307,"","",172014,"",石川県金沢市芳斉2-3-43,石川県,金沢市,芳斉,2-3-43,"",36.572038,136.64985,"","",076-221-7226,"","","","",-,"",金沢市芳斎公民館振興協力会,月火水木金,09:00,17:45,"休館日:国民の祝日、振替休日、お盆、年末年始（12月29日～１月３日）、館長が必要と認めた日。
館長が必要と認めた場合は夜間及び休館日も開館する場合あり。",各地区ごとに設置され、地域における学習の機会と場を提供しています。,可,"","",有,スロープ有,"","",可,"",可,"","",併設児童館に有,有,可,"",可,http://www.housai-k.jp,"","",""
41,172014,AA0000000853,石川県金沢市,長田町公民館,ナガタマチコウミンカン,Nagatamachi Community Center,"",1307,"","",172014,"",石川県金沢市長田1-5-50,石川県,金沢市,長田,1-5-50,"",36.575882,136.642986,"","",076-263-3900,"","","","",-,"",金沢市長田町公民館振興協力会,月火水木金,09:00,17:00,休館日は土日、祝祭日、振替休日、およびお盆期間・年末年始。夜間(17時～21時)と休館日の利用は許可を受けた場合のみ可能。,各地区ごとに設置され、地域における学習の機会と場を提供しています。,"","","","","","","",可,"","","","","","","","","",http://www.spacelan.ne.jp/~nagata-k/home/kouminkan.html,"","",""
42,172014,AA0000000854,石川県金沢市,此花町公民館,コノハナマチコウミンカン,Konohanamachi Community Center,"",1307,"","",172014,"",石川県金沢市此花町2-7,石川県,金沢市,此花町,2-7,"",36.577193,136.651955,"","",076-263-8148,"","","","",-,"",金沢市此花町公民館振興協力会,月火水木金,08:45,17:15,休館日：土日、国民の祝日、振替休日、年末年始、お盆。　館長が必要と認めた場合は臨時に開館または休館する場合あり。,各地区ごとに設置され、地域における学習の機会と場を提供しています。,可,"","",有,"",有,"",可,"","",有,"","",有,"","","",http://www.spacelan.ne.jp/~konohana-k/,"","",""
43,172014,AA0000000855,石川県金沢市,瓢箪町公民館,ヒョウタンマチコウミンカン,Hyotanmachi Community Center,"",1307,"","",172014,"",石川県金沢市彦三町2-10-5,石川県,金沢市,彦三町,2-10-5,"",36.575801,136.657413,"","",076-221-1476,"","","","",-,"",金沢市瓢箪町公民館振興協力会,月火水木金,09:00,17:00,休館日：土日、国民の祝日、振替休日、年末年始(12月29日～1月3日）夏季休館日（8月13日～8月16日）,各地区ごとに設置され、地域における学習の機会と場を提供しています。,"","","","","","","",可,"",可,"","","",併設児童館に有,可,"","",https://hyoutantan.com,"","",""
44,172014,AA0000000856,石川県金沢市,馬場公民館,ババコウミンカン,Baba Community Center,"",1307,"","",172014,"",石川県金沢市東山3-9-35,石川県,金沢市,東山,3-9-35,"",36.574477,136.665101,"","",076-252-0705,"","","","",-,"",金沢市馬場公民館振興協力会,月火水木金,09:00,17:00,"休館日：土日、国民の休日、振替休日、年末年始（12月29日～1月3日）、夏季休館日（8月14日～16日）。
館長が必要と認めた場合は臨時に開館または休館する場合あり。",各地区ごとに設置され、地域における学習の機会と場を提供しています。,"","","","","","","",可,"",可,"","","","",可,"","","","","",""
45,172014,AA0000000857,石川県金沢市,浅野町公民館,アサノマチコウミンカン,Asanomachi Community Center,"",1307,"","",172014,"",石川県金沢市乙丸町甲161,石川県,金沢市,乙丸町甲,161,"",36.586739,136.665312,"","",076-251-1637,"","","","",-,"",金沢市浅野町公民館振興協力会,月火水木金,09:00,17:00,休館日:土日、国民の祝日、振替休日、および年末年始（12月29日～１月３日）、夏季休館日（8月14日～16日）、館長が必要と認めた場合は臨時に開館または休館する場合あり。土日や平日の17時以降は事前予約があれば利用可。,各地区ごとに設置され、地域における学習の機会と場を提供しています。,"","","","","","","",可,"",可,"","","","","","","",http://www.facebook.com/asanomati,"","",""
46,172014,AA0000000858,石川県金沢市,森山公民館,モリヤマコウミンカン,Moriyama Community Center,"",1307,"","",172014,"",石川県金沢市森山2-11-13,石川県,金沢市,森山,2-11-13,"",36.579398,136.669017,"","",076-252-6873,"","","","",-,"",金沢市森山公民館振興協力会,月火水木金,09:00,17:00,休館日:土日、国民の祝日、振替休日、および年末年始（12月29日～１月３日）、旧盆（8月14日～16日）夜間(17時～21時)と土日の利用は許可を受けた場合のみ可能。,各地区ごとに設置され、地域における学習の機会と場を提供しています。,可,"","","","","","",可,"",可,"","","","",可,"","",http://www.spacelan.ne.jp/~moriyama-k/,"","",""
47,172014,AA0000000859,石川県金沢市,千坂公民館,チサカコウミンカン,Chisaka Community Center,"",1307,"","",172014,"",石川県金沢市千木1-119,石川県,金沢市,千木,1-119,"",36.605795,136.674127,"","",076-257-0670,"","","","",-,"",金沢市千坂公民館振興協力会,月火水木金,09:00,17:30,休館日:国民の祝日、振替休日、および年末年始（12月29日～１月３日）、旧盆（8月14日～16日）,各地区ごとに設置され、地域における学習の機会と場を提供しています。,"","","","","","","",可,"",可,"","","","",可,"","",http://www.spacelan.ne.jp/~chisaka-k/,"","",""
48,172014,AA0000000860,石川県金沢市,夕日寺公民館,ユウヒデラコウミンカン,Yuhidera Community Center,"",1307,"","",172014,"",石川県金沢市夕日寺町ロ35番地,石川県,金沢市,夕日寺町ロ,35番地,"",36.572663,136.705642,"","",076-251-0027,"","","","",-,"",金沢市夕日寺公民館振興協力会,月火水木金,09:00,17:00,休館日：土日、国民の祝日、振替休日、お盆、年末年始（12月29日から1月4日）。申し込みがあった場合には、夜間及び土日も利用可。,各地区ごとに設置され、地域における学習の機会と場を提供しています。,可,"","",有,"","","",可,"",可,有,有,"","",可,"","",https://yuuhidera1300.com,"","",""
49,172014,AA0000000861,石川県金沢市,諸江公民館,モロエコウミンカン,Moroe Community Center,"",1307,"","",172014,"",石川県金沢市諸江町29-1,石川県,金沢市,諸江町,29-1,"",36.590668,136.641505,"","",076-263-1630,"","","","",-,"",金沢市諸江公民館振興協力会,月火水木金,09:00,17:00,"休館日：国民の祝日、振替休日、旧盆、年末年始（12月29日～1月3日）、館長が必要と認めた場合は臨時に開館または休館する場合あり。
申し込みがあった場合には、夜間及び土日も利用可",各地区ごとに設置され、地域における学習の機会と場を提供しています。,可,有,"",有,エレベーター有,"","",可,"",可,"","","",有,可,"","",https://moroe-k.org,"","",""
50,172014,AA0000000862,石川県金沢市,富樫公民館,トガシコウミンカン,Togashi Community Center,"",1307,"","",172014,"",石川県金沢市山科1-6-8,石川県,金沢市,山科,1-6-8,"",36.528432,136.647259,"","",076-241-1971,"","","","",-,"",金沢市富樫公民館振興協力会,月火水木金,09:00,17:00,"休館日：土日、国民の祝日、振替休日、お盆、年末年始（12月29日～1月4日）、館長が必要と認めた場合、臨時開館又は休館する場合あり。
夜間(17時～21時)と土日の利用は、事前に許可を受けた場合可能。",各地区ごとに設置され、地域における学習の機会と場を提供しています。,可,有,"","","","","",可,"",可,"","","","",可,"",可,http://togashi-pub.com/,"","",""
51,172014,AA0000000863,石川県金沢市,米丸公民館,ヨネマルコウミンカン,Yonemaru Community Center,"",1307,"","",172014,"",石川県金沢市間明町2-72,石川県,金沢市,間明町,2-72,"",36.565138,136.618266,"","",076-291-1171,"","","","",-,"",金沢市米丸公民館振興協力会,月火水木金土,08:30,17:20,"休館日:国民の祝日、振替休日、年末年始（12月29日～１月4日）その他館長が指定する日（旧盆含）、なお土曜日8：30～12：00迄開館となります。
但し申し込みがあった場合には、館長判断により夜間及び土日祝日も利用可",各地区ごとに設置され、地域における学習の機会と場を提供しています。,可,"","",有,"","","",可,"",可,"","","","",可,"","",http://yonemaru.main.jp/,"","",""
52,172014,AA0000000864,石川県金沢市,三馬公民館,ミンマコウミンカン,Minma Community Center,"",1307,"","",172014,"",石川県金沢市久安6-59-1,石川県,金沢市,久安,6-59-1,"",36.542116,136.63456,"","",076-243-2734,"","","","",-,"",金沢市三馬公民館振興協力会,月火水木金,09:00,17:00,休館日:祝日、お盆、年末年始（12月29日～１月4日）館長が必要と認めた場合は臨時に開館または休館する場合あり,各地区ごとに設置され、地域における学習の機会と場を提供しています。,可,可,"",有,スロープのみ有,"","",可,"",可,"","","","","","","",https://sites.google.com/site/minmakouminkan/ibento-qing-bao,"","",""
53,172014,AA0000000865,石川県金沢市,崎浦公民館,サキウラコウミンカン,Sakiura Community Center,"",1307,"","",172014,"",石川県金沢市小立野2-41-36,石川県,金沢市,小立野,2-41-36,"",36.546794,136.680462,"","",076-231-6851,"","","","",-,"",金沢市崎浦公民館振興協力会,月火水木金,09:00,17:30,"休館日:国民の祝日、振替休日、お盆、および年末年始（12月29日～１月３日）館長が必要と認めた場合は臨時に開館または休館する場合あり。
貸館利用は月～土曜日9：00～21：00まで可能",各地区ごとに設置され、地域における学習の機会と場を提供しています。,"","","","","","","",可,"",可,"","","","",可,"","",https://sakiura.jp/,"","",""
54,172014,AA0000000866,石川県金沢市,小坂公民館,コサカコウミンカン,Kosaka Community Center,"",1307,"","",172014,"",石川県金沢市小坂町北312,石川県,金沢市,小坂町北,312,"",36.593443,136.675689,"","",076-252-3067,"","","","",-,"",金沢市小坂公民館振興協力会,月火水木金,09:00,17:30,休館日:国民の祝日、お盆、および年末年始（12月29日～１月5日）館長が必要と認めた場合は臨時に開館または休館する場合あり,各地区ごとに設置され、地域における学習の機会と場を提供しています。,"","","","","","","",可,"",可,"","","","",可,"","",https://www.kosaka-k.com/,"","",""
55,172014,AA0000000867,石川県金沢市,鞍月公民館,クラツキコウミンカン,Kuratsuki Community Center,"",1307,"","",172014,"",石川県金沢市直江南1丁目1番地,石川県,金沢市,直江南1丁目,1番地,"",36.601024,136.63386,"","",076-237-6446,"","","","",-,"",金沢市鞍月公民館振興協力会,月火水木金,09:00,17:30,休館日：土曜日及び日曜日、国民の祝日、振替休日、旧盆（8月14日～16日）、 年末年始（12月29日から1月3日）、館長が必要と認めた場合は臨時に開館または休館する場合あり。,各地区ごとに設置され、地域における学習の機会と場を提供しています。,可,有,"",有,エレベーター有,有,"",可,"",可,有,"","",有,"","","",http://www.spacelan.ne.jp/~kuratuki-k/,"","",""
56,172014,AA0000000868,石川県金沢市,浅野川公民館,アサノガワコウミンカン,Asanogawa Community Center,"",1307,"","",172014,"",石川県金沢市大河端西1丁目96,石川県,金沢市,大河端西1丁目,96,"",36.615365,136.639571,"","",076-238-2100,"","","","",-,"",金沢市浅野川公民館振興協力会,月火水木金,09:00,17:00,休館日：土曜日及び日曜日、国民の祝日、年末年始（12月29日から1月3日）、館長が必要と認めた場合は臨時に閉館または休館する場合あり。貸館利用は土日祝日9:00から22:00まで可。,各地区ごとに設置され、地域における学習の機会と場を提供しています。,"","","","","","","",可,"",可,"","","","",可,"","",http://asanogawa.net/,"","",""
57,172014,AA0000000869,石川県金沢市,粟崎公民館,アワガサキコウミンカン,Awagasaki Community Center,"",1307,"","",172014,"",石川県金沢市粟崎町1-3,石川県,金沢市,粟崎町,1-3,"",36.625577,136.627885,"","",076-238-2632,"","","","",-,"",金沢市粟崎公民館振興協力会,月火水木金土,09:00,17:00,"休館日:国民の祝日、振替休日、および年末年始（12月29日～１月３日）館長が必要と認めた場合は臨時に開館または休館する場合あり。
土曜日の開館時間は9:00～12:45　事前予約があれば夜間及び土日祝も利用可",各地区ごとに設置され、地域における学習の機会と場を提供しています。,可,有,"",有,"","","",可,"",可,"","","","",可,"","",https://www.awagasaki.jp/,"","",""
58,172014,AA0000000870,石川県金沢市,大野町公民館,オオノマチコウミンカン,Onomachi Community Center,"",1307,"","",172014,"",石川県金沢市大野町1-8-5,石川県,金沢市,大野町,1-8-5,"",36.610865,136.602882,"","",076-268-3896,"","","","",-,"",金沢市大野町公民館振興協力会,月火水木金,09:00,17:45,休館日：国民の祝日、年末年始（12月29日から1月3日）館長が必要と認めた場合は臨時に開館または休館する場合あり。その他：貸館内容に問題がなく、事前予約があれば平日及び土日祝、22時までの使用を許可する。,各地区ごとに設置され、地域における学習の機会と場を提供しています。,"","","","","","","",可,"",可,有,"","","","","","",https://oonomachi.com/,"","",""
59,172014,AA0000000871,石川県金沢市,戸板公民館,トイタコウミンカン,Toita Community Center,"",1307,"","",172014,"",石川県金沢市戸板1-2,石川県,金沢市,戸板,1-2,"",36.57887,136.625701,"","",076-231-5830,"","","","",-,"",金沢市戸板公民館振興協力会,月火水木金,09:00,17:00,国民の祝日、お盆、および年末年始（12月29日～１月３日）,各地区ごとに設置され、地域における学習の機会と場を提供しています。,可,有,有,有,エレベーター有,有,"",可,"",可,有,"","",有,"","","",http://toitakoumi.exblog.jp/,"","",""
60,172014,AA0000000872,石川県金沢市,大徳公民館,ダイトクコウミンカン,Daitoku Community Center,"",1307,"","",172014,"",石川県金沢市畝田西1-201-1,石川県,金沢市,畝田西,1-201-1,"",36.59234,136.609935,"","",076-268-3214,"","","","",-,"",金沢市大徳公民館振興協力会,月火水木金,09:00,17:00,"休館日:国民の祝日、振替休日、および旧盆休暇、年末年始館長が必要と認めた場合は臨時に開館または休館する場合有り。
申し込みがあった場合には、夜間及び土日も利用可。",各地区ごとに設置され、地域における学習の機会と場を提供しています。,可,有,"","","","","",可,"","","","","","","","","",http://www.spacelan.ne.jp/~daitoku-k/,"","",""
61,172014,AA0000000873,石川県金沢市,金石町公民館,カナイワマチコウミンカン,Kanaiwamachi Community Center,"",1307,"","",172014,"",石川県金沢市金石通町3-14,石川県,金沢市,金石通町,3-14,"",36.604305,136.594367,"","",076-267-2774,"","","","",-,"",金沢市金石町公民館振興協力会,月火水木金,09:00,17:00,"休館日：土曜日及び日曜日、国民の祝日、振替休日、年末年始（12月29日から1月3日）、旧盆（8月14日から8月16日）申し込みがあった場合には、夜間及び土日祝日も利用可   
",各地区ごとに設置され、地域における学習の機会と場を提供しています。,可,"","",有,エレベーター有,"","",可,"",可,有,"","",有,可,"",可,http://www.kanaiwamachi-kouminkan.org/,"","",""
62,172014,AA0000000874,石川県金沢市,二塚公民館,フタツカコウミンカン,Futatsuka Community Center,"",1307,"","",172014,"",石川県金沢市北塚町西98,石川県,金沢市,北塚町西,98,"",36.572778,136.597176,"","",076-249-3474,"","","","",-,"",金沢市二塚公民館振興協力会,月火水木金,09:00,17:00,休館日：土日、国民の祝日、年末年始（12月29日から1月3日）。館長が必要と認めた場合は臨時に開館または休館する場合あり。,各地区ごとに設置され、地域における学習の機会と場を提供しています。,可,"","","","","","",可,"",可,有,"","","",可,"","",https://sites.google.com/view/futatukakouminkan,"","",""
63,172014,AA0000000875,石川県金沢市,大浦公民館,オオウラコウミンカン,Oura Community Center,"",1307,"","",172014,"",石川県金沢市大浦町ヌ93-1,石川県,金沢市,大浦町ヌ,93-1,"",36.624177,136.650374,"","",076-238-5271,"","","","",-,"",金沢市大浦公民館振興協力会,月火水木金,09:00,17:00,休館日：土曜日及び日曜日、国民の祝日、年末年始（12月29日から1月3日）、旧盆（8月14日から8月16日）,各地区ごとに設置され、地域における学習の機会と場を提供しています。,可,"","",有,"","","",可,"","",有,"","","",可（飲）,"",可,https://yam-pkg.jp/ooura/,"","",""
64,172014,AA0000000876,石川県金沢市,松寺公民館,マツデラコウミンカン,Matsudera Community Center,"",1307,"","",172014,"",石川県金沢市松寺町丑42,石川県,金沢市,松寺町丑,42,"",36.603897,136.651954,"","",076-238-1020,"","","","",-,"",金沢市松寺公民館振興協力会,月火水木金,09:00,17:00,"休館日：国民の祝日、年末年始（12月29日から1月3日）、館長が必要と認めた場合は臨時に開館または休館する場合あり。
申し込みがあった場合には、夜間及び土日も利用可。",各地区ごとに設置され、地域における学習の機会と場を提供しています。,"","","","","","","",可,"",可,"","","","",可,"","",http://www.spacelan.ne.jp/~matudera-k/,"","",""
65,172014,AA0000000877,石川県金沢市,安原公民館,ヤスハラコウミンカン,Yasuhara Community Center,"",1307,"","",172014,"",石川県金沢市福増町北1067,石川県,金沢市,福増町北,1067,"",36.567951,136.580264,"","",076-249-2282,"","","","",-,"",金沢市安原公民館振興協力会,月火水木金,09:00,17:00,"休館日：土日、国民の祝日、振替休日、および年末年始（12月29日～1月3日）、館長が必要と認めた場合は臨時に開館または休館する場合あり。
夜間及び休館日は許可を受けた場合のみ利用可。",各地区ごとに設置され、地域における学習の機会と場を提供しています。,可,有,"",有,"",有,"",可,"",可,有,"","",有,可,"","",https://yasuhara-kouminkan.blogspot.com,"","",""
66,172014,AA0000000878,石川県金沢市,額公民館,ヌカコウミンカン,Nuka Community Center,"",1307,"","",172014,"",石川県金沢市額谷3-1-1,石川県,金沢市,額谷,3-1-1,"",36.510864,136.624167,"","",076-296-1515,"","","","",-,"",金沢市額公民館振興協力会,月火水木金,08:30,17:00,休館日:国民の祝日、振替休日、および年末年始（12月29日～1月3日）、館長が必要と認めた場合は臨時に開館（夜間及び土日利用）または休館する場合あり,各地区ごとに設置され、地域における学習の機会と場を提供しています。,可,有,"","","","","",可,"",可,有,"","","",可,"","",https://www.nuka-k.jp/,"","",""
67,172014,AA0000000879,石川県金沢市,内川公民館,ウチカワコウミンカン,Uchikawa Community Center,"",1307,"","",172014,"",石川県金沢市三小牛町20-1-10,石川県,金沢市,三小牛町,20-1-10,"",36.509824,136.67496,"","",076-247-2263,"","","","",-,"",金沢市内川公民館振興協力会,月火水木金,09:00,17:00,休館日:国民の祝日、振替休日、および年末年始（12月29日～1月3日）、館長が必要と認めた場合は臨時に開館または休館する場合あり,各地区ごとに設置され、地域における学習の機会と場を提供しています。,可,有,"","","","","",可,"","","","","","","","","",http://uchikawa2263.jp/,"","",""
68,172014,AA0000000880,石川県金沢市,犀川公民館,サイガワコウミンカン,Saigawa Community Center,"",1307,"","",172014,"",石川県金沢市末町6-67-1,石川県,金沢市,末町,6-67-1,"",36.51694,136.688121,"","",076-229-0949,"","","","",-,"",金沢市犀川公民館振興協力会,月火水木金,09:00,17:45,休館日:国民の祝日、振替休日、および年末年始（12月29日～１月３日）、館長が必要と認めた場合は臨時に開館または休館する場合あり,各地区ごとに設置され、地域における学習の機会と場を提供しています。,可,"","",有,"","","",可,"",可,有,有,"",有,可(条件有),"","",http://saigawakouminkan.blogspot.com,"","",""
69,172014,AA0000000881,石川県金沢市,湯涌公民館,ユワクコウミンカン,Yuwaku Community Center,"",1307,"","",172014,"",石川県金沢市芝原町イ59,石川県,金沢市,芝原町イ,59,"",36.492142,136.750124,"","",076-235-1852,"","","","",-,"",金沢市湯涌公民館振興協力会,月火水木金,08:30,17:30,休館日:土曜日及び日曜日、国民の祝日、振替休日、および年末年始（12月29日～１月３日）、旧盆（8月14日～16日）館長が必要と認めた場合臨時開館又は休館する場合あり,各地区ごとに設置され、地域における学習の機会と場を提供しています。,可,"","","","","","",可,"",可,"","","","",可,"",可,https://yuwaku-k.wixsite.com/mysite/home,"","",""
70,172014,AA0000000882,石川県金沢市,押野公民館,オシノコウミンカン,Oshino Community Center,"",1307,"","",172014,"",石川県金沢市八日市2-464,石川県,金沢市,八日市,2-464,"",36.546093,136.60859,"","",076-247-0856,"","","","",-,"",金沢市押野公民館振興協力会,月火水木金,09:00,17:45,"休館日:国民の祝日、振替休日、および年末年始（12月29日～１月３日）、旧盆（8月14日～16日）
申し込みがあった場合には、夜間及び土日も利用可",各地区ごとに設置され、地域における学習の機会と場を提供しています。,可,有,"",有,"","","",可,"",可,有,"","","",可,"","",http://www.spacelan.ne.jp/~oshino-k/,"","",""
71,172014,AA0000000883,石川県金沢市,田上公民館,タガミコウミンカン,Tagami Community Center,"",1307,"","",172014,"",石川県金沢市田上の里2-3,石川県,金沢市,田上の里,2-3,"",36.545416,136.692067,"","",076-261-1331,"","","","",-,"",金沢市田上公民館振興協力会,月火水木金,09:00,17:00,"休館日：国民の祝日、年末年始（12月29日から１月3日）、館長が必要と認めた場合は臨時に開館又は休館する場合あり。
事前申請団体のみ、夜間及び土日も利用可。",各地区ごとに設置され、地域における学習の機会と場を提供しています。,可,有,"",有,エレベーター有,有,有,可,"",可,有,有,"",有,"","","",http://tagamicc.jp/,"","",""
72,172014,AA0000000884,石川県金沢市,森本公民館,モリモトコウミンカン,Morimoto Community Center,"",1307,"","",172014,"",石川県金沢市南森本町チ103-1,石川県,金沢市,南森本町チ,103-1,"",36.616718,136.693325,"","",076-258-0317,"","","","",-,"",金沢市森本公民館振興協力会,月火水木金,09:00,17:45,休館日：土曜日及び日曜日・祝日・旧盆(8/14～8/16）・年末年始(12/29～1/4)・館長が必要と認めた場合は臨時に休館する場合あり,各地区ごとに設置され、地域における学習の機会と場を提供しています。,"","","","","","","",可,"",可,"","","","","","","",http://www.spacelan.ne.jp/~morimoto-k/,"","",""
73,172014,AA0000000885,石川県金沢市,伏見台公民館,フシミダイコウミンカン,Fushimidai Community Center,"",1307,"","",172014,"",石川県金沢市窪5-675,石川県,金沢市,窪,5-675,"",36.5259375,136.6380185,"","",076-243-3341,"","","","",-,"",金沢市伏見台公民館振興協力会,月火水木金,09:00,17:30,休館日：国民の祝日、年末年始（１２月２９日～１月３日）、お盆（８月１４日～８月１６日）,各地区ごとに設置され、地域における学習の機会と場を提供しています。,可,"","",有,"","","",可,"",可,"","","","","","","",https://fushimidai.jp,"","",""
74,172014,AA0000000886,石川県金沢市,花園公民館,ハナゾノコウミンカン,Hanazono Community Center,"",1307,"","",172014,"",石川県金沢市今町チ41,石川県,金沢市,今町チ,41,"",36.6334831,136.7076705,"","",076-258-0006,"","","","",-,"",金沢市花園公民館振興協力会,月火水木金,09:00,17:30,"休館日：祝日、お盆（８月14日から１６日）、年末年始（１２月２９日から１月３日）、館長が必要と認めた場合臨時開館又は休館する場合あり
貸館利用：事前申請必要　10：00～21：00利用可",各地区ごとに設置され、地域における学習の機会と場を提供しています。,"","","","","","","",可,"",可,"","","",有,"","","","","","",""
75,172014,AA0000000887,石川県金沢市,新神田公民館,シンカンダコウミンカン,Shinkanda Community Center,"",1307,"","",172014,"",石川県金沢市新神田1-1-18,石川県,金沢市,新神田,1-1-18,"",36.5639968,136.635623,"","",076-291-0025,"","","","",-,"",金沢市新神田公民館振興協力会,月火水木金,09:00,17:00,"休館日：国民の祝日、年末年始（12月29日から1月4日）館長が必要と認めた場合は臨時に開館または休館する場合あり
申し込みがあった場合には、夜間及び土日も利用可",各地区ごとに設置され、地域における学習の機会と場を提供しています。,"","","","","","",有,可,"",可,有,"","","",可,"",可,http://shinkanda-k.jp,"","",""
76,172014,AA0000000888,石川県金沢市,医王山公民館,イオウゼンコウミンカン,Iozen Community Center,"",1307,"","",172014,"",石川県金沢市二俣町6-14-9,石川県,金沢市,二俣町,6-14-9,"",36.562139,136.761959,"","",076-236-1233,"","","","",-,"",金沢市医王山公民館振興協力会,月火水木金,09:00,17:30,"休館日:国民の祝日、振替休日、および年末年始（12月29日～１月３日）館長が必要と認めた場合は臨時に休館する場合あり。
申し込みがあった場合には、夜間及び土日も利用可",各地区ごとに設置され、地域における学習の機会と場を提供しています。,可,"","","","","","",可,"",可,"","","","",可,"",可,https://iouzen.kouminkan.org/,"","",""
77,172014,AA0000000889,石川県金沢市,薬師谷公民館,ヤクシダニコウミンカン,Yakushidani Community Center,"",1307,"","",172014,"",石川県金沢市不動寺町イ34-1,石川県,金沢市,不動寺町イ,34-1,"",36.6080647,136.70866,"","",076-257-2488,"","","","",-,"",金沢市薬師谷公民館振興協力会,月火水木金,09:00,17:00,"休館日:祝日、年末年始（12月29日～１月３日）その他館長が必要と認めた臨時休館日有
事前申し込みに限り、夜間及び土日祝も利用可",各地区ごとに設置され、地域における学習の機会と場を提供しています。,"","","","","","","",可,"",可,"","","","",可（条件有）,"","",https://yakushidani.grupo.jp/,"","",""
78,172014,AA0000000890,石川県金沢市,三和公民館,ミワコウミンカン,Miwa Community Center,"",1307,"","",172014,"",石川県金沢市上荒屋4-82,石川県,金沢市,上荒屋,4-82,"",36.5537531,136.5933553,"","",076-240-7530,"","","","",-,"",金沢市三和公民館振興協力会,月火水木金,09:00,17:00,休館日：国民の祝日、年末年始（12月29日から1月3日）、館長が必要と認めた場合は臨時に開館または休館する場合あり,各地区ごとに設置され、地域における学習の機会と場を提供しています。,可,"","","","","","",可,"","",有,"","","",可,"","",https://miwa-k.jp/,"","",""
79,172014,AA0000000891,石川県金沢市,西公民館,ニシコウミンカン,Nishi Community Center,"",1307,"","",172014,"",石川県金沢市西念2-34-9,石川県,金沢市,西念,2-34-9,"",36.586902,136.640583,"","",076-262-6716,"","","","",-,"",金沢市西公民館振興協力会,月火水木金,09:00,17:00,"休館日：国民の祝日、年末年始（１２月２９日～１月３日）、お盆（８月１3日～８月１６日）、館長が必要と認めた場合は臨時休館有、
申込みが有った場合には、夜間及び土日も利用可",各地区ごとに設置され、地域における学習の機会と場を提供しています。,可,有,"","","","","",可,"",可,"","","","",可,"","",http://www.spacelan.ne.jp/~nisi-k/,"","",""
80,172014,AA0000000892,石川県金沢市,西南部公民館,セイナンブコウミンカン,Seinanbu Community Center,"",1307,"","",172014,"",石川県金沢市西金沢3-684,石川県,金沢市,西金沢,3-684,"",36.5547836,136.6121949,"","",076-240-8860,"","","","",-,"",金沢市西南部公民館振興協力会,月火水木金,09:00,17:00,休館日：国民の祝日、年末年始（12月29日から1月3日）、その他館長が必要と認めた場合は開館または休館する場合あり（申込みがあった場合には、夜間及び土日も利用可）,各地区ごとに設置され、地域における学習の機会と場を提供しています。,可,"","","","","","",可,"",可,"","","","",可,"","",https://seinanbu-k.sakura.ne.jp/seinanbu/,"","",""
81,172014,AA0000000893,石川県金沢市,米泉公民館,ヨナイズミコウミンカン,Yonaizumi Community Center,"",1307,"","",172014,"",石川県金沢市米泉町8-126,石川県,金沢市,米泉町,8-126,"",36.55055,136.626457,"","",076-241-8924,"","","","",-,"",金沢市米泉公民館振興協力会,月火水木金,09:00,17:00,休館日:国民の祝日、振替休日、および年末年始（12月28日～1月4日）,各地区ごとに設置され、地域における学習の機会と場を提供しています。,"","","",有,"","","",可,"",可,"","","","",可,"","", http://yonaizumi.sub.jp/,"","",""
82,172014,AA0000000894,石川県金沢市,三谷公民館,ミタニコウミンカン,Mitani Community Center,"",1307,"","",172014,"",石川県金沢市宮野町ホ79,石川県,金沢市,宮野町ホ,79,"",36.596739,136.736889,"","",076-257-6727,"","","","",-,"",金沢市三谷公民館振興協力会,月火水木金,09:00,17:30,休館日：国民の祝日、振替休日、年末年始（１２月２９日～１月３日）、お盆（８月１４日～８月１６日）,各地区ごとに設置され、地域における学習の機会と場を提供しています。,可,"","",有,"","","",可,"",可,"","","",有,可,"","",http://www.spacelan.ne.jp/~mitani-k/,"","",""
83,172014,AA0000000895,石川県金沢市,湖南公民館,コナンコウミンカン,Konan Community Center,"",1307,"","",172014,"",石川県金沢市八田町東1459-1,石川県,金沢市,八田町東,1459-1,"",36.6331826,136.6860891,"","",076-208-4820,"","","","",-,"",金沢市湖南公民館振興協力会,月火水木金,09:00,17:00,"休館日：国民の祝日、振替休日、年末年始（12月29日～1月3日）　館長が必要と認めた場合は臨時に開館または休館する場合あり
申し込みがあった場合には、夜間及び土日も利用可",各地区ごとに設置され、地域における学習の機会と場を提供しています。,可,"","","","","","",可,"",可,"","",有,有,可,"",可,http://konan-kanazawa.jp/wordpress/,"","",""
84,172014,AA0000000896,石川県金沢市,旭日公民館,キョクジツコウミンカン,Kyokujitsu Community Center,"",1307,"","",172014,"",石川県金沢市加賀朝日町ホ33,石川県,金沢市,加賀朝日町ホ,33,"",36.62267,136.756293,"","",076-257-5547,"","","","",-,"",金沢市旭日公民館振興協力会,月火水木金,09:00,17:00,休館日：祝日、年末年始（12月29日から1月3日）、その他館長が必要と認めた場合は開館または休館する場合あり,各地区ごとに設置され、地域における学習の機会と場を提供しています。,可,"","","","","","",可,"",可,"","","","",可,"",可,http://www7.plala.or.jp/kyokujituhome/index.html,"","",""
85,172014,AA0000000897,石川県金沢市,俵公民館,タワラコウミンカン,Tawara Community Center,"",1307,"","",172014,"",石川県金沢市俵町ツ63-2,石川県,金沢市,俵町ツ,63-2,"",36.5344105,136.7250218,"","",076-222-4855,"","","","",-,"",金沢市俵公民館振興協力会,月火水木金,09:00,17:00,休館日:国民の祝日、振替休日、および年末年始（12月29日～1月3日）、館長が必要と認めた場合は臨時に開館または休館する場合あり,各地区ごとに設置され、地域における学習の機会と場を提供しています。,可,"","","","","","",可,"","","","","","","","","","","","",""
86,172014,AA0000000898,石川県金沢市,東浅川公民館,ヒガシアサカワコウミンカン,Higashiasakawa Community Center,"",1307,"","",172014,"",石川県金沢市上中町ニ14,石川県,金沢市,上中町ニ,14,"",36.520413,136.705473,"","",076-229-0936,"","","","",-,"",金沢市東浅川公民館振興協力会,月火水木金,09:00,17:00,休館日: 土・日・祝日、年末年始（12月29日～1月3日）、お盆（8月14日～8月16日）、館長が必要と認めた場合は臨時に開館または休館する場合あり。また、申し込みがあった場合には、夜間及び土日も利用可,各地区ごとに設置され、地域における学習の機会と場を提供しています。,可(1階のみ),"","","",スロープ有,"","",可,"",可,"","","","",可,"","","","","",""
87,172014,AA0000000900,石川県金沢市,四十万公民館,シジマコウミンカン,Shijima Community Center,"",1307,"","",172014,"",石川県金沢市四十万3-90,石川県,金沢市,四十万,3-90,"",36.503787,136.618722,"","",076-298-1234,"","","","",-,"",金沢市四十万公民館振興協力会,月火水木金,09:00,17:00,"休館日：国民の祝日、年末年始（12月29日から1月3日）、館長が必要と認めた場合は臨時に開館または休館する場合あり 。
申し込みがあった場合には、夜間及び土日も利用可。",各地区ごとに設置され、地域における学習の機会と場を提供しています。,可,"","",有,"","","",可,"",可,有,"","",有,可（条件有）,"","",https://shijima-k.jp/,"","",""
88,172014,AA0000000901,石川県金沢市,中央公民館長町館,チュウオウコウミンカンナガマチカン,Chuo Kominkan Community Center Naga-machi Branch,"",1307,"","",172014,356002,石川県金沢市長町2-2-43,石川県,金沢市,長町2,2-43,"",36.5631877,136.6501141,階数,4,076-220-2462,"",cyuuou_hon@city.kanazawa.lg.jp,"","",920-0865,4000020172014,金沢市,月火水木金土日,09:00,21:00,休館日:国民の祝日、振替休日、および年末年始（12月29日～1月3日）,生涯学習活動を目的とする各種団体、グループへの貸館、公民館フェアの開催等を通じ、一般教養をはじめ金沢の歴史、文化等幅広い学習の機会を提供し、出会いと絆を深める場となっています。,可,可,無,有,有,無,無,有,無,有,無,無,無,無,無,無,有,https://www4.city.kanazawa.lg.jp/soshikikarasagasu/chuokominkan/index.html,http://infra-media.city.kanazawa.ishikawa.jp/images/https://www4.city.kanazawa.lg.jp/material/images/group/87/IMG_0016.JPG,CC BY,事前登録必要
89,172014,AA0000000903,石川県金沢市,キゴ山ふれあい研修センター天文学習棟,キゴヤマフレアイケンシュウセンターテンモンガクシュウトウ,Kigoyama Fureai Training Center,"",1399,"","",172014,278103,石川県金沢市平等本町カ13-1,石川県,金沢市,平等本町,カ13-1,キゴ山ふれあい研修センター天文学習棟,36.517599,136.742776,階数,4,076-229-1141,"",tentai@city.kanazawa.lg.jp,"","",920-1141,4000020172014,金沢市,火水木金土日,09:00,17:00,休館日:月曜日(その日が国民の祝日に関する法律(昭和23年法律第178号)第３条に規定する休日に当たるときは、その日の直後の休日以外の日)、年末年始（12月29日～1月3日）,宇宙・天体に関する展示品、プラネタリウム、大型望遠鏡等があり、天体観察や宇宙についての理解を深めるための施設です。,可,無,無,有,有,無,無,有,無,有,有,無,無,無,可,無,可,https://www4.city.kanazawa.lg.jp/kigo/index.html,"","",""
90,172014,AA0000000904,石川県金沢市,キゴ山ふれあい研修センターこども交流棟,キゴヤマフレアイケンシュウセンターコドモコウリュウトウ,Kigoyama Fureai Training Center,"",1399,"","",172014,278103,石川県金沢市平等本町カ13-1,石川県,金沢市,平等本町,カ13-1,キゴ山ふれあい研修センターこども交流棟,36.517922,136.742947,階数,2,076-229-1141,"",tentai@city.kanazawa.lg.jp,"","",920-1141,4000020172014,金沢市,火水木金土日,08:30,17:15,休館日:月曜日(その日が国民の祝日に関する法律(昭和23年法律第178号)第３条に規定する休日に当たるときは、その日の直後の休日以外の日)、年末年始（12月29日～1月3日）,小中学生が、自然に親しむ学習活動や野外活動等を行う拠点となる施設です。,可,無,無,有,有,無,無,有,無,有,有,無,無,無,可,無,可,https://www4.city.kanazawa.lg.jp/kigo/index.html,"","",""
91,172014,AA0000000905,石川県金沢市,キゴ山ふれあい研修センター青少年交流棟,キゴヤマフレアイケンシュウセンターセイショウネンコウリュウトウ,Kigoyama Fureai Training Center,"",1399,"","",172014,12113,石川県金沢市小豆沢町ヲ４,石川県,金沢市,小豆沢町,ヲ４,キゴ山ふれあい研修センター青少年交流棟,36.523682,136.746022,階数,3,076-229-0583,"", fureai@city.kanazawa.lg.jp,"","",920-1107,4000020172014,金沢市,火水木金土日,08:30,17:15,休館日:月曜日(その日が国民の祝日に関する法律(昭和23年法律第178号)第３条に規定する休日に当たるときは、その日の直後の休日以外の日)、年末年始（12月29日から1月3日まで）,キゴ山の豊かな自然環境の中で、人と人、人と自然のふれあいの場として、自ら活動する団体をサポートする施設です。,不可,無,無,有,有,無,無,有,無,有,有,無,無,無,可,無,可,https://www4.city.kanazawa.lg.jp/kigo/index.html,"","",""
116,172014,AA0000001050,石川県金沢市,金沢市近江町消費生活センター,カナザワシオウミチョウショウヒセイカツセンター,Kanazawa City Omicho Consumer Affairs Center,"",1399,"","",172014,"",石川県金沢市青草町88（近江町いちば館5階）,石川県,金沢市,青草町,88,近江町いちば館5階,36.571579,136.6562,"","",076-232-0070,"","","","",-,4000020172014,金沢市,月火水木金,09:00,17:00,休館日:土曜、日曜（第3を除く）、祝日、年末年始（12/29～1/3）,消費者と事業者間のトラブルに関する相談を受け、必要に応じて事業者と交渉したり、解決策を提案したりします。,"","","","","","","","","","","","","","","","","",https://www4.city.kanazawa.lg.jp/soshikikarasagasu/divercityjinkenseisakuka/gyomuannai/1/1/6226.html,"","",""
119,172014,AA0000001051,石川県金沢市,市役所本庁舎,シヤクショホンチョウシャ,City Hall Building No.1,シヤクショホンチョウシャ,1302,"","",172014,"",石川県金沢市広坂1-1-1,石川県,金沢市,広坂1丁目,1番1号,"",36.561437,136.656243,"","",076-220-2111,"","","","",-,4000020172014,金沢市,月火水木金,09:00,17:45,休館日:土・日・祝日、年末年始(12/29～1/3),主な取扱業務：各種証明書の交付、戸籍・住民異動届の受付、印鑑登録の受付、国民健康保険の加入・脱退、個人番号カードの受付、交付,車椅子可,車椅子貸出有り,"",多目的トイレ有り,スロープ有り;段差無し;エレベーター有り;手すり有り,点字ブロック有り,"",盲導犬・介助犬・聴導犬同伴可,"","",優先駐車場有り,"","","","","","",https://www4.city.kanazawa.lg.jp/index.html,"","",""
120,172014,AA0000001052,石川県金沢市,森本市民センター,モリモトシミンセンター,Morimoto Civic Center,モリモトシミンセンター,1304,"","",172014,"",石川県金沢市南森本町ヌ33番地,石川県,金沢市,南森本町,ヌ33番地,"",36.617444,136.694279,"","",076-258-1130,"","","","",-,4000020172014,金沢市,月火水木金,08:30,17:15,休館日:土・日・祝日、年末年始(12/29～1/3),主な取扱業務：各種証明書の交付、戸籍・住民異動届の受付、印鑑登録の受付、国民健康保険の加入・脱退、個人番号カードの受付,車椅子可,車椅子貸出有り,"","",段差無し;階段無し,点字ブロック有り,"","","","","","","","","","","",https://www4.city.kanazawa.lg.jp/soshikikarasagasu/shiminka/gyomuannai/2/1/4686.html,"","",""
121,172014,AA0000001053,石川県金沢市,金石市民センター,カナイワシミンセンター,Kanaiwa Civic Center,カナイワシミンセンター,1304,"","",172014,"",石川県金沢市金石通町3番14号,石川県,金沢市,金石通町,3番14号,"",36.604305,136.594367,"","",076-267-0001,"","","","",-,4000020172014,金沢市,月火水木金,08:30,17:15,休館日:土・日・祝日、年末年始(12/29～1/3),主な取扱業務：各種証明書の交付、戸籍・住民異動届の受付、印鑑登録の受付、国民健康保険の加入・脱退、個人番号カードの受付,車椅子可,"","","",スロープ有り;段差無し,点字ブロック有り,"",盲導犬・介助犬・聴導犬同伴可,"","",優先駐車場有り,"","","","","","",https://www4.city.kanazawa.lg.jp/soshikikarasagasu/shiminka/gyomuannai/2/1/4683.html,"","",""
122,172014,AA0000001054,石川県金沢市,犀川市民センター,サイガワシミンセンター,Saigawa Civic Center,サイガワシミンセンター,1304,"","",172014,"",石川県金沢市末町6の67番地1,石川県,金沢市,末町,6の67番地1,"",36.516923,136.688139,"","",076-229-0001,"","","","",-,4000020172014,金沢市,月火水木金,08:30,17:15,休館日:土・日・祝日、年末年始(12/29～1/3),主な取扱業務：各種証明書の交付、戸籍・住民異動届の受付、印鑑登録の受付、国民健康保険の加入・脱退、個人番号カードの受付,車椅子可、車椅子対応公衆電話有り,車椅子貸出有り,"",多目的トイレ有り,段差無し;手すり有り,点字ブロック有り,"",盲導犬・介助犬・聴導犬同伴可,"","",優先駐車場有り,"","","","","","",https://www4.city.kanazawa.lg.jp/soshikikarasagasu/shiminka/gyomuannai/2/1/4691.html,"","",""
123,172014,AA0000001055,石川県金沢市,安原市民センター,ヤスハラシミンセンター,Yasuhara Civic Center,ヤスハラシミンセンター,1304,"","",172014,"",石川県金沢市福増町北1067番地,石川県,金沢市,福増町,北1067番地,"",36.567969,136.580336,"","",076-249-2001,"","","","",-,4000020172014,金沢市,月火水木金,08:30,17:15,休館日:土・日・祝日、年末年始(12/29～1/3),主な取扱業務：各種証明書の交付、戸籍・住民異動届の受付、印鑑登録の受付、国民健康保険の加入・脱退、個人番号カードの受付,車椅子可、車椅子対応公衆電話有り,車椅子貸出有り,"",多目的トイレ有り,段差無し,"","",盲導犬・介助犬・聴導犬同伴可,"","",優先駐車場有り,"","","","","","",https://www4.city.kanazawa.lg.jp/soshikikarasagasu/shiminka/gyomuannai/2/1/4693.html,"","",""
124,172014,AA0000001062,石川県金沢市,駅西市民センター,エキニシシミンセンター,Ekinishi Civic Center,エキニシシミンセンター,1304,"","",172014,"",石川県金沢市西念3丁目4番25号（金沢市保健所1F）,石川県,金沢市,西念3丁目,4番25号,（金沢市保健所1F）,36.589895,136.635525,"","",076-234-5141,"","","","",-,4000020172014,金沢市,月火水木金,08:30,17:15,休館日:土・日・祝日、年末年始(12/29～1/3),主な取扱業務：各種証明書の交付、戸籍・住民異動届の受付、印鑑登録の受付、国民健康保険の加入・脱退、個人番号カードの受付,車椅子可,車椅子貸出有り,"",多目的トイレ有り,スロープ有り;エレベーター有り,"","","","","",優先駐車場有り,"","","","","","",https://www4.city.kanazawa.lg.jp/soshikikarasagasu/shiminka/gyomuannai/2/1/4678.html,"","",""
125,172014,AA0000001056,石川県金沢市,額市民センター,ヌカシミンセンター,Nuka Civic Center,ヌカシミンセンター,1304,"","",172014,"",石川県金沢市額谷3丁目1番地1,石川県,金沢市,額谷3丁目,1番地1,"",36.510921,136.624126,"","",076-298-0045,"","","","",-,4000020172014,金沢市,月火水木金,08:30,17:15,休館日:土・日・祝日、年末年始(12/29～1/3),主な取扱業務：各種証明書の交付、戸籍・住民異動届の受付、印鑑登録の受付、国民健康保険の加入・脱退、個人番号カードの受付,車椅子可,"","","",階段無し,点字ブロック有り,"",盲導犬・介助犬・聴導犬同伴可,"","",優先駐車場有り,"","","","","","",https://www4.city.kanazawa.lg.jp/soshikikarasagasu/shiminka/gyomuannai/2/1/4688.html,"","",""
126,172014,AA0000001057,石川県金沢市,押野市民センター,オシノシミンセンター,Oshino Civic Center,オシノシミンセンター,1304,"","",172014,"",石川県金沢市八日市2丁目464番地,石川県,金沢市,八日市2丁目,464番地,"",36.54604,136.608596,"","",076-241-2559,"","","","",-,4000020172014,金沢市,月火水木金,08:30,17:15,休館日:土・日・祝日、年末年始(12/29～1/3),主な取扱業務：各種証明書の交付、戸籍・住民異動届の受付、印鑑登録の受付、国民健康保険の加入・脱退、個人番号カードの受付,車椅子可,"","","",段差無し;階段無し,点字ブロック有り,"",盲導犬・介助犬・聴導犬同伴可,"","",優先駐車場有り,"","","","","","",https://www4.city.kanazawa.lg.jp/soshikikarasagasu/shiminka/gyomuannai/2/1/4689.html,"","",""
127,172014,AA0000001058,石川県金沢市,浅川市民センター,アサノガワシミンセンター,Asakawa Civic Center,アサノガワシミンセンター,1304,"","",172014,"",石川県金沢市田上の里２丁目３番地,石川県,金沢市,田上の里２丁目,３番地,"",36.545406,136.692088,"","",076-221-3344,"","","","",-,4000020172014,金沢市,月火水木金,08:30,17:15,休館日:土・日・祝日、年末年始(12/29～1/3),主な取扱業務：各種証明書の交付、戸籍・住民異動届の受付、印鑑登録の受付、国民健康保険の加入・脱退、個人番号カードの受付,車椅子可,車椅子貸出有り,"",多目的トイレ有り,スロープ有り;段差無し;エレベーター有り;手すり有り,点字ブロック有り,"",盲導犬・介助犬・聴導犬同伴可,"","",優先駐車場有り,"","","","","","",https://www4.city.kanazawa.lg.jp/soshikikarasagasu/shiminka/gyomuannai/2/1/4677.html,"","",""
128,172014,AA0000001059,石川県金沢市,泉野市民センター,イズミノシミンセンター,Izumino Civic Center,イズミノシミンセンター,1304,"","",172014,"",石川県金沢市泉が丘1丁目2番22号（泉野福祉健康センター1F）,石川県,金沢市,泉が丘1丁目,2番22号,（泉野福祉健康センター1F）,36.5442832,136.6486989,"","",076-242-8552,"","","","",-,4000020172014,金沢市,月火水木金,08:30,17:15,休館日:土・日・祝日、年末年始(12/29～1/3),主な取扱業務：各種証明書の交付、戸籍・住民異動届の受付、印鑑登録の受付、国民健康保険の加入・脱退、個人番号カードの受付,車椅子可,車椅子貸出有り,"",多目的トイレ有り,スロープ有り;エレベーター有り,"","","","","",優先駐車場有り,"","","","","","",https://www4.city.kanazawa.lg.jp/soshikikarasagasu/shiminka/gyomuannai/2/1/4682.html,"","",""
129,172014,AA0000001060,石川県金沢市,元町市民センター,モトマチシミンセンター,Motomachi Civic Center,モトマチシミンセンター,1304,"","",172014,"",石川県金沢市元町1丁目12番12号（元町福祉健康センター1F）,石川県,金沢市,元町1丁目,12番12号,（元町福祉健康センター1F）,36.581675,136.667004,"","",076-252-0257,"","","","",-,4000020172014,金沢市,月火水木金,08:30,17:15,休館日:土・日・祝日、年末年始(12/29～1/3),主な取扱業務：各種証明書の交付、戸籍・住民異動届の受付、印鑑登録の受付、国民健康保険の加入・脱退、個人番号カードの受付,車椅子可,車椅子貸出有り,"",多目的トイレ有り,スロープ有り;エレベーター有り,"","","","","",優先駐車場有り,"","","","","","",https://www4.city.kanazawa.lg.jp/soshikikarasagasu/shiminka/gyomuannai/2/1/4687.html,"","",""
130,172014,AA0000001061,石川県金沢市,新神田市民センター,シンカンダシミンセンター,Shinkanda Civic Center,シンカンダシミンセンター,1304,"","",172014,"",石川県金沢市新神田4丁目3番10号（金沢新神田合同庁舎1F）,石川県,金沢市,新神田4丁目,3番10号,（金沢新神田合同庁舎1F）,36.561773,136.629694,"","",076-291-6266,"","","","",-,4000020172014,金沢市,月火水木金,08:30,17:15,休館日:土・日・祝日、年末年始(12/29～1/3),主な取扱業務：各種証明書の交付、戸籍・住民異動届の受付、印鑑登録の受付、国民健康保険の加入・脱退、個人番号カードの受付,車椅子可,車椅子貸出有り,"",多目的トイレ有り,スロープ有り;エレベーター有り;手すり有り,点字ブロック有り,"",盲導犬・介助犬・聴導犬同伴可,"","",優先駐車場有り,"","","","","","",https://www4.city.kanazawa.lg.jp/soshikikarasagasu/shiminka/gyomuannai/2/1/4684.html,"","",""
131,172014,AA0000001063,石川県金沢市,湊市民センター,ミナトシミンセンター,Minato Civic Center,ミナトシミンセンター,1304,"","",172014,"",石川県金沢市湊3丁目5番地9,石川県,金沢市,湊3丁目,5番地9,"",36.619222,136.630075,"","",076-239-2211,"","","","",-,4000020172014,金沢市,月火水木金,08:30,17:15,休館日:土・日・祝日、年末年始(12/29～1/3),主な取扱業務：各種証明書の交付、戸籍・住民異動届の受付、印鑑登録の受付、国民健康保険の加入・脱退、個人番号カードの受付,車椅子可,"","",多目的トイレ有り,スロープ有り;段差無し,点字ブロック有り,"",盲導犬・介助犬・聴導犬同伴可,"","",優先駐車場有り,"","","","","","",https://www4.city.kanazawa.lg.jp/soshikikarasagasu/shiminka/gyomuannai/2/1/4685.html,"","",""
132,172014,AA0000001064,石川県金沢市,本町市民センター,ホンマチシミンセンター,Honmachi Civic Center,ホンマチシミンセンター,1304,"","",172014,"",石川県金沢市本町1丁目5番3号（リファーレ2F）,石川県,金沢市,本町1丁目,5番3号,（リファーレ2F）,36.57565,136.651796,"","",076-260-0365,"","","","",-,4000020172014,金沢市,月火水木金,08:30,17:15,休館日:土・日・祝日、年末年始(12/29～1/3),主な取扱業務：各種証明書の交付、戸籍・住民異動届の受付、印鑑登録の受付、国民健康保険の加入・脱退、個人番号カードの受付,車椅子可,"","",多目的トイレ有り,段差無し;エレベーター有り;エスカレーター有り,"","",盲導犬・介助犬・聴導犬同伴可,"","",優先駐車場有り,"","","","","","",https://www4.city.kanazawa.lg.jp/soshikikarasagasu/shiminka/gyomuannai/2/1/4681.html,"","",""
133,172014,AA0000001065,石川県金沢市,近江町市民センター,オウミチョウシミンセンター,Omicho Civic Center,オウミチョウシミンセンター,1304,"","",172014,"",石川県金沢市青草町88番地（近江町いちば館4F）,石川県,金沢市,青草町,88番地,（近江町いちば館4F）,36.571547,136.65594,"","",076-260-0250,"","","","",-,4000020172014,金沢市,月火水木金,08:30,17:15,休館日:土・日・祝日、年末年始(12/29～1/3),主な取扱業務：各種証明書の交付、戸籍・住民異動届の受付、印鑑登録の受付、国民健康保険の加入・脱退、個人番号カードの受付,車椅子可,"","",多目的トイレ有り,段差無し;エレベーター有り;手すり有り,点字ブロック有り,"",盲導犬・介助犬・聴導犬同伴可,"","",優先駐車場有り,"","","","","","",https://www4.city.kanazawa.lg.jp/soshikikarasagasu/shiminka/gyomuannai/2/1/4690.html,"","",""
134,172014,AA0000001066,石川県金沢市,内川証明書交付機コーナー,ウチカワショウメイショコウフキコーナー,Uchikawa Certificate Issuing Machine Corner,ウチカワショウメイショコウフキコーナー,1307,"","",172014,"",石川県金沢市三小牛町20の1番地10（内川公民館内）,石川県,金沢市,三小牛町,20の1番地10,（内川公民館内）,36.509826,136.675013,"","",076-247-2263,"","","","",-,4000020172014,金沢市,月火水木金,09:00,17:00,休館日:土・日・祝日、年末年始(12/29～1/3),取扱業務：住民票の写し・印鑑登録証明書・戸籍の附票の写し・戸籍証明書（謄・抄本）の証明書交付サービス,車椅子可,車椅子貸出有り,"","",スロープ有り;段差無し,"","","","","","","","","","","","",https://www4.city.kanazawa.lg.jp/soshikikarasagasu/shiminka/gyomuannai/2/1/4692.html,"","",""
135,172014,AA0000001067,石川県金沢市,湯涌証明書交付機コーナー,ユワクショウメイショコウフキコーナー,Yuwaku Certificate Issuing Machine Corner,ユワクショウメイショコウフキコーナー,1307,"","",172014,"",石川県金沢市芝原町イ59番地（湯涌公民館内）,石川県,金沢市,芝原町,イ59番地,（湯涌公民館内）,36.492189,136.750129,"","",076-235-1852,"","","","",-,4000020172014,金沢市,月火水木金,09:00,17:00,休館日:土・日・祝日、年末年始(12/29～1/3),取扱業務：住民票の写し・印鑑登録証明書・戸籍の附票の写し・戸籍証明書（謄・抄本）の証明書交付サービス,車椅子可,"","","",スロープ有り;手すり有り,"","","","","","","","","","","","",https://www4.city.kanazawa.lg.jp/soshikikarasagasu/shiminka/gyomuannai/2/1/4694.html,"","",""
136,172014,AA0000000837,石川県金沢市,上荒屋史跡公園,カミアラヤシセキコウエン,"",上荒屋史跡公園,603,"","",172014,"",石川県金沢市上荒屋7丁目73,石川県,金沢市,上荒屋7丁目,73,"",36.551844,136.588753,"","",076-220-2469,"","","","",-,4000020172014,金沢市,"","","","",奈良時代から平安時代にかけての荘園跡である国史跡「東大寺領横江荘遺跡上荒屋遺跡」を整備した史跡公園です。公園内には発掘調査で見つかった運河跡や荘家跡などが立体的に再現されています。,"","","","","","","","","","","","","","","","","","",http://infra-media.city.kanazawa.ishikawa.jp/images/08596/a22b47b93dc081be7db258d8132f8f08.jpg,"",""
137,172014,AA0000000838,石川県金沢市,チカモリ遺跡公園,チカモリイセキコウエン,"",チカモリ遺跡公園,603,"","",172014,"",石川県金沢市新保本5丁目47,石川県,金沢市,新保本5丁目,47,"",36.556141,136.604712,"","",076-240-2371,"","","","",-,4000020172014,金沢市,"","","","",巨大な縄文時代の木柱根が発掘されたことで有名な国史跡「チカモリ遺跡」を整備した遺跡公園です。公園内には発掘調査で見つかった環状木柱列など縄文時代後・晩期の遺構が復元されています。,"","","","","","","","","","","","","","","","","",https://www4.city.kanazawa.lg.jp/soshikikarasagasu/bunkazaihogoka/gyomuannai/3/1/1/siteibunkazai/5/5837.html,http://infra-media.city.kanazawa.ishikawa.jp/images/42018/1d6376c37f91891272ba7b99a3dede1a.jpg,"",""
138,172014,AA0000000836,石川県金沢市,金沢市三谷さとやま交流広場,カナザワシミタニサトヤマコウリュウヒロバ,"",金沢市三谷さとやま交流広場,1305,"","",172014,"",石川県金沢市宮野町ヲ１１番地,石川県,金沢市,宮野町,ヲ11番地,"",36.598872,136.732869,"","",なし（無人施設のため）,"",nourin_s@city.kanazawa.lg.jp,"","",-,4000020172014,金沢市,月火水木金土日,"","",休館日なし（無人施設のため）,金沢市三谷さとやま交流広場は、里山の豊かな自然環境の中で、農林業の体験や市民の交流の場として利用することにより、農林業の振興と周辺地域の活性化を目的とした施設です。,"",無,無,有,無,"","","","","","","",無,"",有,無,有,https://www4.city.kanazawa.lg.jp/soshikikarasagasu/nogyosuisanshinkoka/gyomuannai/3/1/6603.html,"","",ふれあい交流ルーム等をご利用の場合は、事前にお申込みください。申込み先　金沢市農業水産振興課　076-220-2213
139,172014,AA0000000919,石川県金沢市,金沢市西町教育研修館,カナザワシニシチョウキョウイクケンシュウカン,"",西町教育研修館,1399,"","",172014,"",石川県金沢市西町三番丁16,石川県,金沢市,西町三番丁,16,"",36.569699,136.656077,"","",076-232-4050,"","","","",-,4000020172014,金沢市,月水木金土日,09:00,19:00,休館日:毎週火曜日、12月29日～1月3日,〔経緯〕昭和27年10月　石川県繊維会館として建設（金沢市名誉市民の谷口吉郎博士が設計）、昭和58年　金沢市が買収、昭和60年～　改修後中央公民館西町館として使用、平成14年～　  金沢市西町教育研修館として使用、令和４年10月　国登録有形文化財に登録,不可,無,無,無,スロープのみ有,無,無,無,無,無,無,無,無,無,"",無,無,https://www4.city.kanazawa.lg.jp/soshikikarasagasu/kohokochoka/gyomuannai/6/2/6342.html,https://www.kanazawa-sports.jp/wp-content/uploads/2022/02/DJI_0130-2.jpg,"",""
141,172014,AA0000000921,石川県金沢市,市営球技場,キュウギジョウ,Municipal Ball Stadium,球技場,1104,"","",172014,"",石川県金沢市富樫3-8-10,石川県,金沢市,富樫,3-8-10,"",36.539191,136.641684,"","",076-280-0223,"","","","",921-8171,1220005007364,公益財団法人　金沢市スポーツ事業団,日月火水木金土,09:00,19:00,休館日:年末年始（１２月２８日から翌年１月３日まで）,"サッカー・ラグビー・アメリカンフットボール（人工芝）１面、観覧席3,192人",○,×,×,○,観覧席のみスロープあり,×,×,○,×,×,○,×,×,×,○,×,×,https://www.kanazawa-sports.jp/use/search/686/,https://www.kanazawa-sports.jp/wp-content/uploads/2020/03/CIMG5061.jpg,CC BY,""
142,172014,AA0000000922,石川県金沢市,専光寺ソフトボール場,センコウジソフトボールジョウ,Senkoji Softball Field,専光寺ソフトボール場,1103,"","",172014,"",石川県金沢市専光寺町レ3-5,石川県,金沢市,専光寺,レ3-5,"",36.586615,136.578966,"","",076-268-7090,"","","","",920-0356,1220005007364,公益財団法人　金沢市スポーツ事業団,日月火水木金土,日の出,日没,休館日:年末年始（１２月２８日から翌年１月３日まで）※冬期間は休業します。夜間照明を使用する場合は午後９時まで　会議室：午前６時から午後９時まで,ソフトボール場４面（うち照明設備付１面）,○,×,×,×,×,○,×,○,×,×,○,×,×,×,○,×,×,https://www.kanazawa-sports.jp/use/search/681/,https://www.kanazawa-sports.jp/wp-content/uploads/2018/03/BC7+BC7+BC7+BC7+BC7Dsc00697.jpg,CC BY,""
143,172014,AA0000000923,石川県金沢市,市営陸上競技場,リクジョウキョウギジョウ,Municipal Athletic Stadium,陸上競技場,1102,"","",172014,"",石川県金沢市弥生3-5-1,石川県,金沢市,弥生,3-5-1,"",36.541008,136.643654,"","",076-241-0049,"","","","",921-8036,1220005007364,公益財団法人　金沢市スポーツ事業団,日月火水木金土,09:00,21:00,休館日:年末年始（１２月２８日から翌年１月３日まで）,"第２種公認：トラック８コース、観覧席1,610席",○,×,×,×,×,×,×,○,×,×,○,×,×,×,○,×,×,https://www.kanazawa-sports.jp/use/search/671/,https://www.kanazawa-sports.jp/wp-content/uploads/2020/10/rikujo01-2000x1125.jpg,CC BY,""
144,172014,AA0000000924,石川県金沢市,内川スポーツ広場,ウチカワスポーツヒロバ,Uchikawa Sports Square,内川スポーツ広場,1199,"","",172014,"",石川県金沢市山川町1-1,石川県,金沢市,山川町,1-1,"",36.511141,136.687426,"","",076-229-4013,"","","","",920-1337,1220005007364,公益財団法人　金沢市スポーツ事業団,日月火水木金土,09:30,19:00,休館日:１２月１日から翌年３月３１日まで、少年野球場：午前８時から午後７時まで（夜間照明を使用する場合は午後９時まで）、芝生広場・レストハウス：午前９時から午後５時３０分まで（７，８月は午後７時まで、※バーベキュー利用は午後５時まで）、遊びの広場：午前９時30分から午後５時まで（１１月は午後４時３０分まで）,少年野球場２面（うち照明設備付１面）、芝生広場、モノレール、スライダー、バーベキュー場,○,○,×,○,×,×,×,○,×,○,○,×,×,○,○,○,○,https://www.kanazawa-sports.jp/use/search/573/,https://www.kanazawa-sports.jp/wp-content/uploads/2018/03/utikawa1.jpg,CC BY,""
145,172014,AA0000000925,石川県金沢市,戸室スポーツ広場,トムロスポーツヒロバ,Tomuro Sports Square,戸室スポーツ広場,1199,"","",172014,"",石川県金沢市戸室新保ト35,石川県,金沢市,戸室新保,ト35,"",36.544717,136.732525,"","",076-236-1322,"","","","",920-1105,1220005007364,公益財団法人　金沢市スポーツ事業団,日月火水木金土,09:00,19:00,休館日:１２月１日から翌年３月３１日まで、少年野球場：午前８時から午後７時まで（※照明設備なし）、マレットゴルフ場・芝生広場・遊びの広場・レストハウス：午前９時から午後５時３０分まで,少年野球場１面、芝生広場、マレットゴルフ、大型斜面遊具,○,○,×,○,×,×,×,○,×,○,○,×,○,○,○,○,○,https://www.kanazawa-sports.jp/use/search/572/,https://www.kanazawa-sports.jp/wp-content/uploads/2018/03/tomuro.jpg,CC BY,""
146,172014,AA0000000926,石川県金沢市,安原スポーツ広場,ヤスハラスポーツヒロバ,Yasuhara Sports Square,安原スポーツ広場,1199,"","",172014,"",石川県金沢市下安原町東1127,石川県,金沢市,下安原町東,1127,"",36.570372,136.574645,"","",076-240-2098,"","","","",920-0371,1220005007364,公益財団法人　金沢市スポーツ事業団,日月火水木金土,06:00,21:00,休館日:年末年始（１２月２８日から翌年１月３日まで）、多目的グラウンドは芝生養生のため使用できる期間は、5月下旬から１１月中旬までに制限しています。野球場は冬期間は閉鎖します。第１室内練習場・第２室内練習場、多目的室：午前６時から午後９時まで、その他：午前６時から午後７時まで,野球場（両翼91ｍ・中堅116ｍ）、多目的グラウンド１面、第１室内練習場、第２室内練習場、多目的室,○,×,×,○,クラブハウスのみスロープあり,○,×,○,×,×,○,×,×,○,○,×,×,https://www.kanazawa-sports.jp/use/search/561/,https://www.kanazawa-sports.jp/wp-content/uploads/2018/03/FH000036.jpg,CC BY,""
147,172014,AA0000000927,石川県金沢市,医王山スキー場,イオウゼンスキージョウ,Iohzen Ski Resort,医王山スキー場,1148,"","",172014,"",石川県金沢市俵町テ甲21,石川県,金沢市,俵町,テ甲21,"",36.527293,136.751669,"","",076-229-0209,"","","","",920-1108,1220005007364,公益財団法人　金沢市スポーツ事業団,日月火水木金土,08:30,16:30,営業期間：12月下旬から3月上旬まで（積雪による）,ファミリーコース（初級者向け）、ダイナミックコース（中・上級者向け）、チャレンジコース（上級者向け）、林道コース（初心者向け）、ソリあそびコース,×,×,×,×,×,×,×,×,×,○,×,×,×,×,○,×,×,https://www.kanazawa-sports.jp/use/search/546/,https://www.kanazawa-sports.jp/wp-content/uploads/2020/12/DSC00253.jpg,CC BY,""
149,172014,AA0000000929,石川県金沢市,久安運動広場,ヒサヤスウンドウヒロバ,Hisayasu Sports Square,久安運動広場,1106,"","",172014,"",石川県金沢市久安2-280,石川県,金沢市,久安,2-280,"",36.533166,136.630676,"","",076-241-0882,"","","","",-,1220005007364,公益財団法人　金沢市スポーツ事業団,日月火水木金土,日の出,日没,休館日:年末年始（１２月２８日から翌年１月３日まで）,少年野球・ソフトボール2面,○,v,×,×,×,×,×,○,×,×,×,×,×,×,○,×,○,https://www.kanazawa-sports.jp/use/search/518/,"","",""
150,172014,AA0000000930,石川県金沢市,額谷運動広場,ヌカダニウンドウヒロバ,Nukadani Sports Square,額谷運動広場,1106,"","",172014,"",石川県金沢市額谷町ホ2-3,石川県,金沢市,額谷町,ホ2-3,"",36.5093,136.62905,"","",076-241-0882,"","","","",-,1220005007364,公益財団法人　金沢市スポーツ事業団,日月火水木金土,日の出,日没,休館日:年末年始（１２月２８日から翌年１月３日まで）,少年野球・ソフトボール１面,×,×,×,○,○,×,×,○,×,×,×,×,×,○,○,×,○,https://www.kanazawa-sports.jp/use/search/518/,"","",""
151,172014,AA0000000931,石川県金沢市,大桑運動広場,オオクワウンドウヒロバ,Ōkuwa Sports Square,大桑運動広場,1106,"","",172014,"",石川県金沢市野田町ソ41,石川県,金沢市,野田町,ソ41,"",36.5358202,136.67173,"","",076-241-0882,"","","","",-,1220005007364,公益財団法人　金沢市スポーツ事業団,日月火水木金土,日の出,日没,休館日:年末年始（１２月２８日から翌年１月３日まで）,少年野球・ソフトボール２面,○,×,×,×,×,×,×,○,×,×,×,×,×,×,○,×,○,https://www.kanazawa-sports.jp/use/search/518/,"","",""
152,172014,AA0000000932,石川県金沢市,田上運動広場,タガミウンドウヒロバ,Tagami Sports Square,田上運動広場,1106,"","",172014,"",石川県金沢市田上2-142-1,石川県,金沢市,田上,2-142-1,"",36.544062,136.695167,"","",076-254-0020,"","","","",-,1220005007364,公益財団法人　金沢市スポーツ事業団,日月火水木金土,日の出,日没,休館日:年末年始（１２月２８日から翌年１月３日まで）,運動広場,○,×,×,×,×,×,×,○,×,×,×,×,×,"",○,×,○,https://www.kanazawa-sports.jp/use/search/518/,"","",""
153,172014,AA0000000933,石川県金沢市,森本こどもグラウンド,モリモトコドモグラウンド,Morimoto Children's Ground,森本こどもグラウンド,1106,"","",172014,"",石川県金沢市塚崎町ハ47-1,石川県,金沢市,塚崎町,ハ47-1,"",36.6152133,136.696772,"","",076-254-0020,"","","","",-,1220005007364,公益財団法人　金沢市スポーツ事業団,日月火水木金土,日の出,日没,休館日:年末年始（１２月２８日から翌年１月３日まで）,少年野球１面,○,×,×,×,×,×,×,○,×,×,×,×,×,×,○,×,○,https://www.kanazawa-sports.jp/use/search/518/,"","",""
154,172014,AA0000000934,石川県金沢市,鞍月広場,クラツキヒロバ,Kuratsuki Square,鞍月広場,1106,"","",172014,"",石川県金沢市鞍月4-21,石川県,金沢市,鞍月,4-21,"",36.598949,136.620837,"","",076-241-0882,"","","","",-,1220005007364,公益財団法人　金沢市スポーツ事業団,日月火水木金土,日の出,日没,休館日:年末年始（１２月２８日から翌年１月３日まで）,サッカー・ラグビー１面,○,×,×,×,×,×,×,○,×,×,×,×,×,×,○,×,○,https://www.kanazawa-sports.jp/use/search/518/,"","",""
155,172014,AA0000000935,石川県金沢市,湊野球場,ミナトヤキュウジョウ,Minato Baseball Stadium,湊野球場,1103,"","",172014,"",石川県金沢市湊2-123,石川県,金沢市,湊,2-123,"",36.635538,136.64903,"","",076-251-0079,"","","","",-,1220005007364,公益財団法人　金沢市スポーツ事業団,日月火水木金土,日の出,日没,休館日:年末年始（１２月２８日から翌年１月３日まで）,軟式野球（成人・少年）・ソフトボール１面,○,×,×,×,×,×,×,○,×,×,×,×,×,×,○,×,○,https://www.kanazawa-sports.jp/use/search/518/,"","",""
156,172014,AA0000000936,石川県金沢市,湊運動公園,ミナトウンドウコウエン,Minato Sports Park,湊運動公園,1106,"","",172014,"",石川県金沢市湊2-86,石川県,金沢市,湊,2-86,"",36.633739,136.646533,"","",076-251-0079,"","","","",-,1220005007364,公益財団法人　金沢市スポーツ事業団,日月火水木金土,日の出,日没,休館日:年末年始（１２月２８日から翌年１月３日まで）,少年野球・ソフトボール１面,○,×,×,×,×,×,×,○,×,×,×,×,×,×,○,×,○,https://www.kanazawa-sports.jp/use/search/518/,"","",""
157,172014,AA0000000937,石川県金沢市,医王山運動広場,イオウゼンウンドウヒロバ,Iohzen Sports Square,医王山運動広場,1106,"","",172014,"",石川県金沢市二俣町阿10,石川県,金沢市,二俣町阿,10,"",36.555339,136.759095,"","",076-254-0020,"","","","",-,1220005007364,公益財団法人　金沢市スポーツ事業団,日月火水木金土,日の出,日没,休館日:年末年始（１２月２８日から翌年１月３日まで）,少年野球・ソフトボール１面、少年サッカー１面,○,×,×,×,×,×,×,○,×,×,×,×,×,×,○,×,○,https://www.kanazawa-sports.jp/use/search/518/,"","",""
158,172014,AA0000000938,石川県金沢市,加賀朝日町グラウンドゴルフ場,カガアサヒマチグラウンドゴルフジョウ,Kaga Asahi Town Ground Golf Course,加賀朝日町グラウンドゴルフ場,1199,"","",172014,"",石川県金沢市加賀朝日町北6,石川県,金沢市,加賀朝日町,北6,"",36.625125,136.757732,"","",076-254-0020,"","","","",-,1220005007364,公益財団法人　金沢市スポーツ事業団,日月火水木金土,日の出,日没,休館日:年末年始（１２月２８日から翌年１月３日まで）,グラウンドゴルフ16ホール,○,×,×,×,×,×,×,○,×,×,×,×,×,×,○,×,○,https://www.kanazawa-sports.jp/use/search/518/,"","",""
159,172014,AA0000000939,石川県金沢市,法光寺運動広場,ホウコウジウンドウヒロバ,Hokoji Sports Square,法光寺運動広場,1106,"","",172014,"",石川県金沢市法光寺町ト11-2,石川県,金沢市,法光寺町,ト11-2,"",36.601868,136.684942,"","",076-254-0020,"","","","",-,1220005007364,公益財団法人　金沢市スポーツ事業団,日月火水木金土,日の出,日没,休館日:年末年始（１２月２８日から翌年１月３日まで）,多目的広場,○,×,×,×,×,×,×,○,×,×,×,×,×,×,○,×,○,https://www.kanazawa-sports.jp/use/search/518/,"","",""
160,172014,AA0000000940,石川県金沢市,金沢テクノパーク運動広場,カナザワテクノパークウンドウヒロバ,Kanazawa Techno Park Sports Square,金沢テクノパーク運動広場,1106,"","",172014,"",石川県金沢市北陽台2-46,石川県,金沢市,北陽台,2-46,"",36.5945723,136.717665,"","",076-251-0079,"","","","",-,1220005007364,公益財団法人　金沢市スポーツ事業団,日月火水木金土,日の出,日没,休館日:年末年始（１２月２８日から翌年１月３日まで）,軟式・ソフトボール１面、サッカー１面、簡易クレーコート１面,○,×,×,○,×,×,×,○,×,×,○,×,×,×,○,×,○,https://www.kanazawa-sports.jp/use/search/518/,"","",""
161,172014,AA0000000941,石川県金沢市,こなん水辺グラウンドゴルフ場,コナンミズベグラウンドゴルフジョウ,Konan Waterside Ground Golf Course,こなん水辺グラウンドゴルフ場,1199,"","",172014,"",石川県金沢市大場町西427-1,石川県,金沢市,大場町西,427-1,"",36.625138,136.67269,"","",076-251-0079,"","","","",-,1220005007364,公益財団法人　金沢市スポーツ事業団,日月火水木金土,日の出,日没,休館日:年末年始（１２月２８日から翌年１月３日まで）,グラウンドゴルフ８ホール,○,×,×,×,○,×,×,○,×,×,○,×,×,×,○,×,○,https://www.kanazawa-sports.jp/use/search/518/,"","",""
162,172014,AA0000000942,石川県金沢市,伏見川スポーツ公園,フシミガワスポーツコウエン,Fushimigawa Sports Park,伏見川スポーツ公園,1106,"","",172014,"",石川県金沢市東力町・黒田1丁目地内,石川県,金沢市,東力町・黒田,1丁目地内,"",36.562936,136.617265,"","",076-254-0020,"","","","",-,1220005007364,公益財団法人　金沢市スポーツ事業団,日月火水木金土,日の出,日没,休館日:年末年始（１２月２８日から翌年１月３日まで）,少年サッカー１面,○,×,×,×,×,×,×,○,×,×,×,×,×,×,○,×,○,https://www.kanazawa-sports.jp/use/search/518/,"","",""
163,172014,AA0000000943,石川県金沢市,西金沢少年運動広場,ニシカナザワショウネンウンドウヒロバ,Nishikanazawa Boys' Sports Square,西金沢少年運動広場,1106,"","",172014,"",石川県金沢市西金沢3-128,石川県,金沢市,西金沢,3-128,"",36.554736,136.61245,"","",076-251-0079,"","","","",-,1220005007364,公益財団法人　金沢市スポーツ事業団,日月火水木金土,日の出,日没,休館日:年末年始（１２月２８日から翌年１月３日まで）,芝生広場,○,×,×,×,×,×,×,○,×,×,×,×,×,×,○,×,○,https://www.kanazawa-sports.jp/use/search/518/,"","",""
165,172014,AA0000000945,石川県金沢市,伏見川グラウンド,フシミガワグラウンド,Fushimigawa Ground,伏見川グラウンド,1103,"","",172014,"",石川県金沢市米泉町10丁目1-9,石川県,金沢市,米泉町,10-1-9,"",36.556861,136.623166,"","",076-251-0079,"","","","",-,1220005007364,公益財団法人　金沢市スポーツ事業団,日月火水木金土,日の出,日没,休館日:年末年始（１２月２８日から翌年１月３日まで）,少年野球・ソフトボール１面,○,×,×,×,×,×,×,○,×,×,×,×,×,×,○,×,○,https://www.kanazawa-sports.jp/use/search/518/,"","",""
166,172014,AA0000000946,石川県金沢市,西部市民憩いの家,セイブシミンイコイノイエ,Seibu Citizen's Rest House,西部市民憩いの家,1199,"","",172014,"",石川県金沢市東力町ハ２５６,石川県,金沢市,東力町,ハ256,"",36.563371,136.619185,"","",076-291-4520,"","","","",921-8015,1220005007364,公益財団法人　金沢市スポーツ事業団,日月火木金土,09:00,21:00,休館日:毎週水曜日、年末年始（１２月２８日から翌年１月３日まで）、平日：午前９時から午後９時まで、日曜日及び祝日：午前９時から午後７時まで、浴室は午前１０時から午後３時まで,男女浴室、大広間、研修室、多目的室、会議室,○２階まで行けない,×,×,×,×,×,×,○,×,○,○,×,×,×,○,×,×,https://www.kanazawa-sports.jp/use/search/post5781/,https://www.kanazawa-sports.jp/wp-content/uploads/2020/12/ikoinoie.jpg,CC BY,""
167,172014,AA0000000947,石川県金沢市,スポーツ交流広場,スポーツコウリュウヒロバ,Sports Exchange Square,スポーツ交流広場,1104,"","",172014,"",石川県金沢市磯部町ニ45,石川県,金沢市,磯部町,ニ45,"",36.597381,136.657041,"","",076-251-8189,"","","","",920-0012,1220005007364,公益財団法人　金沢市スポーツ事業団,日月火水木金土,09:00,21:00,休館日:年末年始（１２月２８日から翌年１月３日まで）,サッカー他：人工芝１面,○,×,×,×,×,×,×,○,×,×,×,×,×,×,○,×,×,https://www.kanazawa-sports.jp/use/search/534/,https://www.kanazawa-sports.jp/wp-content/uploads/2018/03/koryu-01.jpg,CC BY,""
168,172014,AA0000000948,石川県金沢市,屋内交流広場（あめるんパーク）,オクナイコウリュウヒロバ（アメルンパーク）,okunaikouryuuhiroba,あめるんパーク,1199,"","",172014,"",石川県金沢市磯部町ロ23番地1,石川県,金沢市,磯部町,ロ23番地1,"",36.5961931,136.659315,"","",076-251-3531,"","","","",920-0012,8011201004104 ,金沢プール共同事業体,日月火水木金土,09:00,21:00,"休館日:年末年始（１２月２８日から翌年１月３日まで）、設備メンテナンス休館：月 1 日程度
※個人利用は午後４時４５分まで",親子アスレチックゾーン、多目的ゾーン,○,○,×,○,○,○,○,○,×,○,○,○,○,○,○,×,○,http://www.okunaikouryuhiroba.jp/,https://www.okunaikouryuhiroba.jp/photo/01.jpg,CC BY,""
169,172014,AA0000000949,石川県金沢市,城北市民テニスコート,ジョウホクシミンテニスコート,Johoku Citizen Tennis Court,城北市民テニスコート,1116,"","",172014,"",石川県金沢市松寺町酉90-1,石川県,金沢市,松寺町,酉90-1,"",36.601883,136.65669,"","",076-237-6028,"","","","",920-0011,1220005007364,公益財団法人　金沢市スポーツ事業団,日月火水木金土,06:00,21:00,休館日:年末年始（１２月２８日から翌年１月３日まで）※11月～３月：午前９時から午後９時まで,"照明付き全天候型コート（砂入り人工芝）12面、壁打ちコート２面、観覧席1,500人",○,×,×,○,○,×,×,○,×,○,○,×,×,×,○,×,× ,https://www.kanazawa-sports.jp/use/search/512/,https://www.kanazawa-sports.jp/wp-content/uploads/2018/04/johoku-t.jpg,CC BY,""
170,172014,AA0000000950,石川県金沢市,東金沢スポーツ広場,ヒガシカナザワスポーツヒロバ,Higashikanazawa Sports Square,東金沢スポーツ広場,1116,"","",172014,"",石川県金沢市三池町240-1,石川県,金沢市,三池町,240-1,"",36.593823,136.671183,"","",076-252-0318,"","","","",920-0802,1220005007364,公益財団法人　金沢市スポーツ事業団,日月火水木金土,06:00,21:00,休館日:年末年始（１２月２８日から翌年１月３日まで）※11月～３月：午前９時から午後９時まで,照明付き全天候型コート（砂入り人工芝）5面、壁打ちコート1面、スケートボード場,×,×,×,×,×,×,×,○,×,○,×,×,×,×,○,×,×,https://www.kanazawa-sports.jp/use/search/508/,https://www.kanazawa-sports.jp/wp-content/uploads/2018/04/higasikane02.jpg,CC BY,""
171,172014,AA0000000951,石川県金沢市,西金沢テニスコート,ニシカナザワテニスコート,Nishikanazawa Tennis Court,西金沢テニスコート,1116,"","",172014,"",石川県金沢市西金沢3-684,石川県,金沢市,西金沢,3-684,"",36.554741,136.611466,"","",076-240-3848,"","","","",921-8054,1220005007364,公益財団法人　金沢市スポーツ事業団,日月火水木金土,06:00,21:00,休館日:年末年始（１２月２８日から翌年１月３日まで）※11月～３月：午前９時から午後９時まで,照明付き全天候型コート（砂入り人工芝）4面,×,×,×,×,×,×,×,○,×,○,×,×,×,×,○,×,×,https://www.kanazawa-sports.jp/use/search/505/,https://www.kanazawa-sports.jp/wp-content/uploads/2018/04/nishikane.jpg,CC BY,""
172,172014,AA0000000952,石川県金沢市,大徳テニスコート,ダイトクテニスコート,Daitoku Tennis Court,大徳テニスコート,1116,"","",172014,"",石川県金沢市観音堂町ト1-1,石川県,金沢市,観音堂町,ト1-1,"",36.589735,136.607599,"","",076-266-1122,"","","","",920-0838,1220005007364,公益財団法人　金沢市スポーツ事業団,日月火水木金土,06:00,21:00,休館日:年末年始（１２月２８日から翌年１月３日まで）※11月～３月：午前９時から午後９時まで,照明付き全天候型コート（砂入り人工芝）4面,×,×,×,×,×,×,×,○,×,○,×,×,×,×,○,×,×,https://www.kanazawa-sports.jp/use/search/499/,https://www.kanazawa-sports.jp/wp-content/uploads/2018/03/daitoku.jpg,CC BY,""
173,172014,AA0000000953,石川県金沢市,城東テニスコート,ジョウトウテニスコート,Joto Tennis Court,城東テニスコート,1116,"","",172014,"",石川県金沢市土清水2-346,石川県,金沢市,土清水,2-346,"",36.525269,136.691184,"","",076-229-3230,"","","","",920-0955,1220005007364,公益財団法人　金沢市スポーツ事業団,日月火水木金土,06:00,21:00,休館日:年末年始（１２月２８日から翌年１月３日まで）※11月～３月：午前９時から午後９時まで,照明付き全天候型コート（砂入り人工芝）2面,×,×,×,○,○,×,×,○,×,○,○,×,×,×,○,×,×,https://www.kanazawa-sports.jp/use/search/497/,https://www.kanazawa-sports.jp/wp-content/uploads/2018/03/joutou10011.jpg,CC BY,""
174,172014,AA0000000954,石川県金沢市,西部市民プール,セイブシミンプール,Seibu Pool,西部市民プール,1107,"","",172014,"",石川県金沢市東力町ハ250,石川県,金沢市,東力町,ハ250,"",36.562935,136.619833,"","",076-291-6450,"","","","",921-8015,1220005007364,公益財団法人　金沢市スポーツ事業団,日月火木金土,09:00,21:00,休館日:-毎週水曜日-年末年始（１２月２８日から翌年１月５日まで）※１２月～３月：午前１０時から午後９時まで,屋内プール（温水）：25ｍプール、幼児プール,○要介助者,×,×,×,×,×,×,○,×,○,○,×,×,○,○,×,×,https://www.kanazawa-sports.jp/use/search/487/,https://www.kanazawa-sports.jp/wp-content/uploads/2018/03/seibu-t.jpg,CC BY,""
175,172014,AA0000000955,石川県金沢市,鳴和台市民プール,ナルワダイシミンプール,Naruwadai Pool,鳴和台市民プール,1107,"","",172014,"",石川県金沢市鳴和台285,石川県,金沢市,鳴和台,285,"",36.57704,136.679161,"","",076-251-3963,"","","","",920-0815,1220005007364,公益財団法人　金沢市スポーツ事業団,日月火水金土,09:00,21:00,休館日:-毎週木曜日-年末年始（１２月２８日から翌年１月５日まで）※１２月～３月：午前１０時から午後９時まで,屋内プール（温水）：25ｍプール、幼児ブール、ウォータースライダー,○,○,×,○,○,○,×,○,×,○,○,×,○,○,○,×,×,https://www.kanazawa-sports.jp/use/search/483/,https://www.kanazawa-sports.jp/wp-content/uploads/2018/03/naruwadai0002.jpg,CC BY,""
176,172014,AA0000000956,石川県金沢市,金沢プール,カナザワプール,Kanazawapool,金沢プール,1107,"","",172014,"",石川県金沢市磯部町ハ55,石川県,金沢市,磯部町,ハ55番地,"",36.596811,136.659835,"","",076-251-3535,"","","","",920-0012,8011201004104 ,金沢プール共同事業体,日火水木金土,09:00,21:00,休館日:毎週月曜日（祝日の場合は翌日）、年末年始（１２月２８日から翌年１月３日まで）,"屋内プール（温水）：50ｍプール、飛込プール、25ｍサブプール、観覧席（約2,500人（仮設含む））、会議室",○,○,×,○,○,○,○,○,×,○,○,○,○,○,○,×,×,http://www.kanazawa-pool.jp/,https://www.kanazawa-pool.jp/#,CC BY,""
177,172014,AA0000000957,石川県金沢市,金沢市総合体育館,ソウゴウタイイクカン,Kanazawa City General Gymnasium,総合体育館,1110,"","",172014,"",石川県金沢市泉野出町3-8-1,石川県,金沢市,泉野出町,3-8-1,"",36.539911,136.650051,"","",076-247-0088,"","","","",921-8116,1220005007364,公益財団法人　金沢市スポーツ事業団,日月火水木金土,09:00,22:00,休館日:年末年始（１２月２８日から翌年１月３日まで）,第１競技場（40ｍ×60ｍ）、第２競技場（24ｍ×32ｍ）、第３競技場（24ｍ×13ｍ）、卓球室、多目的室、トレーニングルーム、会議室,○,○,×,○,○,×,×,○,×,○,○,○,×,○,○,×,×,https://www.kanazawa-sports.jp/use/search/433/,https://www.kanazawa-sports.jp/wp-content/uploads/2021/04/IMG_3351.jpg,CC BY,""
178,172014,AA0000000958,石川県金沢市,中央市民体育館,チュウオウシミンタイイクカン,Central Civic Gymnasium,中央市民体育館,1110,"","",172014,"",石川県金沢市長町3-3-3,石川県,金沢市,長町,3-3-3,"",36.566611,136.645581,"","",076-260-4554,"","","","",920-0865,1220005007364,公益財団法人　金沢市スポーツ事業団,日月火水木金土,09:00,21:00,休館日:年末年始（１２月２８日から翌年１月３日まで）,競技場（41ｍ×48ｍ）、多目的ホール（トレーニングスペ－ス有、簡易卓球場,○,○,×,○,○,×,×,○,×,○,×,○,×,○,○,×,×,https://www.kanazawa-sports.jp/use/search/176/,https://www.kanazawa-sports.jp/wp-content/uploads/2018/02/chuou10009.jpg,CC BY,""
179,172014,AA0000000959,石川県金沢市,城南市民体育館,ジョウナンシミンタイイクカン,Jonan Civic Gymnasium,城南市民体育館,1110,"","",172014,"",石川県金沢市若草町1-60,石川県,金沢市,若草町,1-60,"",36.544314,136.656708,"","",076-244-1843,"","","","",921-8111,1220005007364,公益財団法人　金沢市スポーツ事業団,日月火水木金土,09:00,21:00,休館日:年末年始（１２月２８日から翌年１月３日まで）,競技場（29ｍ×27.7ｍ）,×,×,×,○,○,×,×,○,×,○,○,×,×,×,○,×,×,https://www.kanazawa-sports.jp/use/search/448/,https://www.kanazawa-sports.jp/wp-content/uploads/2018/04/jonan.jpg,CC BY,""
180,172014,AA0000000960,石川県金沢市,城東市民体育館,ジョウトウシミンタイイクカン,Joto Municipal Gymnasium,城東市民体育館,1110,"","",172014,"",石川県金沢市土清水2-346,石川県,金沢市,土清水,2-346,"",36.524789,136.691267,"","",076-229-3230,"","","","",920-0955,1220005007364,公益財団法人　金沢市スポーツ事業団,日月火水木金土,09:00,21:00,休館日:年末年始（１２月２８日から翌年１月３日まで）,競技場（31ｍ×35ｍ）、多目的スペース,×,×,×,○,○,×,×,○,×,○,○,×,×,×,○,×,×,https://www.kanazawa-sports.jp/use/search/451/,https://www.kanazawa-sports.jp/wp-content/uploads/2018/03/joutou10011.jpg,CC BY,""
181,172014,AA0000000961,石川県金沢市,城北市民体育館,ジョウホクシミンタイイクカン,Johoku Civic Gymnasium,城北市民体育館,1110,"","",172014,"",石川県金沢市鳴和2-10-44,石川県,金沢市,鳴和,2-10-44,"",36.587541,136.669875,"","",076-251-0853,"","","","",920-0804,1220005007364,公益財団法人　金沢市スポーツ事業団,日月火水木金土,09:00,21:00,休館日:年末年始（１２月２８日から翌年１月３日まで）,競技場（29.5ｍ×28ｍ）,×,×,×,×,○,×,×,○,×,○,○,×,×,×,○,×,×,https://www.kanazawa-sports.jp/use/search/455/,https://www.kanazawa-sports.jp/wp-content/uploads/2018/03/jouhoku-t.jpg,CC BY,""
182,172014,AA0000000962,石川県金沢市,城西市民体育館,ジョウサイシミンタイイクカン,Josai Civic Gymnasium,城西市民体育館,1110,"","",172014,"",石川県金沢市木曳野1－3,石川県,金沢市,木曳野,1-3,"",36.598011,136.603013,"","",076-268-3899,"","","","",920-0339,1220005007364,公益財団法人　金沢市スポーツ事業団,日月火水木金土,09:00,21:00,休館日:年末年始（１２月２８日から翌年１月３日まで）,競技場（35ｍ×28.5ｍ）,×,×,×,○,○,×,×,○,×,○,○,×,×,×,○,×,×,https://www.kanazawa-sports.jp/use/search/458/,https://www.kanazawa-sports.jp/wp-content/uploads/2018/04/josai.jpg,CC BY,""
183,172014,AA0000000963,石川県金沢市,森本市民体育館,モリモトシミンタイイクカン,Morimoto Municipal Gymnasium,森本市民体育館,1110,"","",172014,"",石川県金沢市弥勒町ヨ50-1,石川県,金沢市,弥勒町,ヨ50-1,"",36.615877,136.6925,"","",076-257-1906,"","","","",920-3115,1220005007364,公益財団法人　金沢市スポーツ事業団,日月火水木金土,09:00,21:00,休館日:年末年始（１２月２８日から翌年１月３日まで）,競技場（35ｍ×28.5ｍ）,×,×,×,○,○,×,×,○,×,○,○,○,×,×,○,×,×,https://www.kanazawa-sports.jp/use/search/461/,https://www.kanazawa-sports.jp/wp-content/uploads/2018/03/morimoto.jpg,CC BY,""
184,172014,AA0000000964,石川県金沢市,浅野川市民体育館,アサノガワシミンタイイクカン,Asanogawa Civic Gymnasium,浅野川市民体育館,1110,"","",172014,"",石川県金沢市大河端西1-96,石川県,金沢市,大河端町,西1-96,"",36.61484,136.639885,"","",076-238-0277,"","","","",920-0213,1220005007364,公益財団法人　金沢市スポーツ事業団,日月火水木金土,09:00,21:00,休館日:年末年始（１２月２８日から翌年１月３日まで）,競技場（28.5ｍ×35ｍ）,×,×,×,○,○,×,×,○,×,○,○,×,×,○,○,×,×,https://www.kanazawa-sports.jp/use/search/464/,https://www.kanazawa-sports.jp/wp-content/uploads/2018/04/asanogawa-2.jpg,CC BY,""
185,172014,AA0000000965,石川県金沢市,額谷ふれあい体育館,ヌカダニフレアイタイイクカン,Nukadani Fureai Gymnasium,額谷ふれあい体育館,1110,"","",172014,"",石川県金沢市額谷町ヌ16,石川県,金沢市,額谷町,ヌ16,"",36.509409,136.629936,"","",076-296-1123,"","","","",921-8144,1220005007364,公益財団法人　金沢市スポーツ事業団,日月火水木金土,09:00,21:00,休館日:年末年始（１２月２８日から翌年１月３日まで）,競技場（45.7ｍ×32ｍ）、多目的室,○,○,×,○,○,×,×,○,×,○,○,×,×,○,○,×,×,https://www.kanazawa-sports.jp/use/search/468/,https://www.kanazawa-sports.jp/wp-content/uploads/2018/04/nukatani02.jpg,CC BY,""
186,172014,AA0000000966,石川県金沢市,西部市民体育館,セイブシミンタイイクカン,Seibu Civic Gymnasium,西部市民体育館,1110,"","",172014,"",石川県金沢市東力町ハ250,石川県,金沢市,東力町,ハ250,"",36.562935,136.619833,"","",076-291-6450,"","","","",921-8015,1220005007364,公益財団法人　金沢市スポーツ事業団,日月火水木金土,09:00,21:00,休館日:年末年始（１２月２８日から翌年１月３日まで）,競技場（32.5ｍ×31ｍ）,○3階まで行けない,○,×,×,×,×,×,○,×,○,○,×,×,○,○,×,×,https://www.kanazawa-sports.jp/use/search/472/,https://www.kanazawa-sports.jp/wp-content/uploads/2018/03/seibu-t.jpg,CC BY,""
187,172014,AA0000000967,石川県金沢市,鳴和台市民体育館,ナルワダイシミンタイイクカン,Naruwadai Civic Gymnasium,鳴和台市民体育館,1110,"","",172014,"",石川県金沢市鳴和台285,石川県,金沢市,鳴和台,285,"",36.57704,136.679161,"","",076-251-3963,"","","","",920-0815,1220005007364,公益財団法人　金沢市スポーツ事業団,日月火水木金土,09:00,21:00,休館日:年末年始（１２月２８日から翌年１月３日まで）,競技場（27ｍ×31ｍ）、会議室,○,○,×,○,○,○,×,○,×,○,○,×,○,○,○,×,×,https://www.kanazawa-sports.jp/use/search/475/,https://www.kanazawa-sports.jp/wp-content/uploads/2018/03/naruwadai0002.jpg,CC BY,""
188,172014,AA0000000968,石川県金沢市,駅西むつみ体育館,エキニシムツミタイイクカン,"",障害者高齢者体育館,1110,"","",172014,65002,石川県金沢市駅西本町2-3-27,石川県,金沢市,駅西本町２丁目,３番２７号,"",36.5809363,136.636906,"","",076-221-9065,"","","",FAX：076-221-9065,920-0025,1220001000240,株式会社エイム,月火木金土日,10:00,21:00,開館時間：日曜・祝日は9：00から19：00、休館日：毎週水曜日、祝日の翌日、年末年始（１２月２９日から翌年１月３日まで）,体育室・多目的室・ボウリング室・機能回復訓練室（リハビリ室）有り,有,有,無,有,無,有,無,有,無,有,有,有,無,無,有,無,無,https://www4.city.kanazawa.lg.jp/soshikikarasagasu/shogaifukushika/gyomuannai/3/3/4483.html,"","",金沢市内にお住まいの心身に障害がある方（心身に障害がある児童）、高齢者（60歳以上）で登録を受けた方とその介護者、登録を受けた方と一緒にスポーツ、レクリエーションなどを行う方のための体育施設
189,172014,AA0000001080,石川県金沢市,金沢市立病院,カナザワシリツビョウイン,"","",1601,"","",172014,"",石川県金沢市平和町3-7-3,石川県,金沢市,平和町,3-7-3,"",36.54075,136.6626,"","",076-245-2600,"","","","",-,4000020172014,金沢市,月火水木金,08:30,17:00,診療科により受付時間異なる、休日時間外診療あり,【開設許可年月日】、昭和３３年７月１４日、【病床数】、一般病床２７５床　結核病床２５床　感染症病床６床　計３０６床、【主な指定医療機関】、救急告示病院　災害拠点病院　第二種感染症指定医療機関、臨床研修医指定病院　がん診療連携推進病院　地域医療支援病院,"","","","","","","","","","","","","","","","","",https://kanazawa-municipal-hosp.com/,"","",""
190,172014,AA0000001082,石川県金沢市,金沢市松ヶ枝福祉館,カナザワシマツガエフクシカン,"","",1499,"","",172014,"",石川県金沢市高岡町7-25,石川県,金沢市,高岡町,7-25,"",36.569561,136.653736,"","",076-231-3571,"","","","",-,4000020172014,金沢市,月火水木金土日,09:00,22:00,休館日:年末年始（12/29－1/3）,金沢市社会福祉協議会、金沢手をつなぐ親の会、金沢市身体障害者団体連合会、金沢市聴力障害者福祉協会など、市内の福祉関係団体の拠点施設です。高齢者・障害のある方および児童の自主的・創造的な活動を推進し、市民の福祉保健活動やボランティア活動を支援しています。また、会議室の貸出等を行っています。,"","","","","","","","","","","","","","","","","",http://www.kana-syakyo.jp,"","",会議室の貸出は要事前予約
191,172014,AA0000001083,石川県金沢市,金沢市社会福祉協議会　金沢自立生活サポートセンター　金沢障害者就業・生活支援センター　金沢権利擁護センター　金沢ボランティアセンター,カナザワシシャカイフクシキョウギカイ　カナザワジリツセイカツサポートセンター　カナザワショウガイシャシュウギョウ・セイカツシエンセンター　カナザワケンリヨウゴセンター　カナザワボランティアセンター,"","",1407,"","",172014,"",石川県金沢市高岡町7-25,石川県,金沢市,高岡町,7-25,"",36.569561,136.653736,"","",076-231-3571,"","","","",-,4000020172014,金沢市,月火水木金,09:00,17:45,休館日:土、日、祝、年末年始（12/29－1/3）,地域福祉の推進を図ることを目的とした非営利の民間組織です。誰もが住み慣れたまちで安心して生活することの出来る「福祉のまちづくり」の実現を目指し、福祉に関する相談や高齢者・障害のある方等への支援活動を行っています。,"","","","","","","","","","","","","","","","","",http://www.kana-syakyo.jp,"","",""
192,172014,AA0000001084,石川県金沢市,金沢福祉用具情報プラザ,カナザワフクシヨウグジョウホウプラザ,"","",1499,"","",172014,"",石川県金沢市本町1-10-1　ルキーナ金沢1･2F,石川県,金沢市,本町,1-10-1,ルキーナ金沢1･2F,36.576365,136.651919,"","",076-234-9900,"","","","",-,4000020172014,金沢市,月水木金土日,10:00,19:00,休館日:火曜日、年末年始（12/29－1/3）,福祉用具、住宅改修モデルの展示を行うと共に、福祉用具、住宅改修、福祉制度、介護などの相談を受け付けています。,"","","","","","","","","","","","","","","","","",https://www.kz-yogu-plaza.net,"","",会議室の貸出は要事前予約
193,172014,AA0000001085,石川県金沢市,卯辰山公園健康交流センター千寿閣,ウタツヤマコウエンケンコウコウリュウセンターセンジュカク,utatsuyamakoenkenkokoryusentasenjukaku,"",1409,"","",172014,"",石川県金沢市東長江町辺2-1,石川県,金沢市,東長江町辺,2-1,"",36.56763,136.689192,"","",076-222-0008,"","","","",-,4000020172014,金沢市,月火木金土日,09:00,17:00,休館日:水曜日、年末年始,卯辰山公園健康交流センター千寿閣は、子供から高齢者まで誰もが豊かな自然の中で緑に親しみながら活動ができる施設です。,"","","","","","","","","","","","","","","","","",https://www.kanazawa-kenko-plaza.or.jp/17-2utatsuyama-center,"","",""
194,172014,AA0000001086,石川県金沢市,老人福祉センター万寿苑,ロウジンフクシセンターマンジュエン,rojinfukushisentamanjuen,"",1409,"","",172014,"",石川県金沢市大桑町ヤ1-4,石川県,金沢市,大桑町ヤ,1-4,"",36.525252,136.67701,"","",076-244-6745,"","","","",-,4000020172014,金沢市,月火水木金土日,09:00,17:00,休館日:第1日曜日、第2日曜日の翌日、第3日曜日、第4日曜日の翌日、第5日曜日、国民の祝日（敬老の日除く）、年末年始,老人福祉センターでは、各種の講座を定期的に開催しています。短期間の講座、イベントなども開いています。入浴も楽しめます。娯楽室では囲碁や将棋で、大広間ではカラオケなどで、機能回復室では、機能訓練器具や健康機器を利用して、思い思いに過ごすことができます。,"","","","","","","","","","","","","","","","","",https://www.kanazawa-kenko-plaza.or.jp/17-3rojin-hukushi-center,"","",""
195,172014,AA0000001087,石川県金沢市,老人福祉センター松寿荘,ロウジンフクシセンターショウジュソウ,rojinfukushisentashojuso,"",1409,"","",172014,"",石川県金沢市金石北3-3-33,石川県,金沢市,金石北,3-3-33,"",36.607993,136.59951,"","",076-268-6757,"","","","",-,4000020172014,金沢市,月火水木金土日,09:00,17:00,休館日:第1日曜日、第2日曜日の翌日、第3日曜日、第4日曜日の翌日、第5日曜日、国民の祝日（敬老の日除く）、年末年始,老人福祉センターでは、各種の講座を定期的に開催しています。短期間の講座、イベントなども開いています。入浴も楽しめます。娯楽室では囲碁や将棋で、大広間ではカラオケなどで、機能回復室では、機能訓練器具や健康機器を利用して、思い思いに過ごすことができます。,"","","","","","","","","","","","","","","","","",https://www.kanazawa-kenko-plaza.or.jp/17-3rojin-hukushi-center,"","",""
196,172014,AA0000001088,石川県金沢市,老人福祉センター鶴寿園,ロウジンフクシセンターカクジュエン,rojinfukushisentakakujuen,"",1409,"","",172014,"",石川県金沢市額谷町ヌ1,石川県,金沢市,額谷町ヌ,1,"",36.509803,136.629528,"","",076-298-9355,"","","","",-,4000020172014,金沢市,月火水木金土日,09:00,17:00,休館日:第1日曜日の翌日、第2日曜日、第3日曜日の翌日、第4日曜日、第5日曜日、国民の祝日（敬老の日除く）、年末年始,老人福祉センターでは、各種の講座を定期的に開催しています。短期間の講座、イベントなども開いています。入浴も楽しめます。娯楽室では囲碁や将棋で、大広間ではカラオケなどで、機能回復室では、機能訓練器具や健康機器を利用して、思い思いに過ごすことができます。,"","","","","","","","","","","","","","","","","",https://www.kanazawa-kenko-plaza.or.jp/17-3rojin-hukushi-center,"","",""
197,172014,AA0000001089,石川県金沢市,いきいきギャラリー,イキイキギャラリー,ikiikigyarari,"",1499,"","",172014,"",石川県金沢市安江町3-16,石川県,金沢市,安江町,3-16,"",36.574399,136.655777,"","",076-221-2307,"","","","",-,4000020172014,金沢市,月水木金土,10:00,18:00,休館日:第1・3・5火曜日　第2・4日曜日、年末年始,障害のある方や高齢者の手作り品を販売します。ここでの売り上げは、福祉施設で働く障害のある方の工賃や福祉団体の運営費に役立てられています。,"","","","","","","","","","","","","","","","","",http://www3.spacelan.ne.jp/~ikiiki/,"","",""
198,172014,AA0000001074,石川県金沢市,金沢健康プラザ大手町,カナザワケンコウプラザオオテマチ,"",金沢健康プラザ大手町,1305,"","",172014,"",石川県金沢市大手町3-21,石川県,金沢市,大手町,3番25号,"",36.568877,136.661171,"","",076-233-0033,"","","","",-,3220005008369,金沢健康福祉財団,月火水木金土日,09:00,17:00,休館日:祝日、年末年始(12月29日～1月3日),市民の主体的な健康づくりを推進するための施設で、各種健康教室・講座を開催しているほか、筋力トレーニングマシン等を設置した健康スタジオを開放している。,"","","","","","","","","","","","","","","","","",http://www.kanazawa-kenko-plaza.or.jp,"","",管理・運営は、(公財)金沢健康福祉財団
199,172014,AA0000001075,石川県金沢市,泉野福祉健康センター,イズミノフクシケンコウセンター,"",泉野福祉健康センター,1602,"","",172014,"",石川県金沢市泉が丘１丁目２番２２,石川県,金沢市,泉が丘1丁目,2番22号,"",36.5442832,136.6486989,"","",076-242-1131,"","","","",-,4000020172014,金沢市,月火水木金,08:30,17:15,休館日:土日、祝日、年末年始(12月29日～1月3日),乳幼児の各種健診、予防接種をはじめ、地域の人々の健康に関する種々のお手伝いや、介護保険業務、福祉保健サービスの申請・相談など、地域の福祉・保健に関する総合窓口です。,"","","","","","","","","","","","","","","","","",https://www4.city.kanazawa.lg.jp/soshikikarasagasu/izuminofukushikenkocenter/gyomugaiyo/4190.html,"","",""
200,172014,AA0000001076,石川県金沢市,元町福祉健康センター,モトマチフクシケンコウセンター,"",元町福祉健康センター,1602,"","",172014,"",石川県金沢市元町1-12-12,石川県,金沢市,元町1丁目,12番12号,"",36.581653,136.666962,"","",076-251-0200,"","","","",-,4000020172014,金沢市,月火水木金,08:30,17:15,休館日:土日、祝日、年末年始(12月29日～1月3日),乳幼児の各種健診、予防接種をはじめ、地域の人々の健康に関する種々のお手伝いや、介護保険業務、福祉保健サービスの申請・相談など、地域の福祉・保健に関する総合窓口です。,"","","","","","","","","","","","","","","","","",https://www4.city.kanazawa.lg.jp/soshikikarasagasu/izuminofukushikenkocenter/gyomugaiyo/4191.html,"","",""
201,172014,AA0000001077,石川県金沢市,駅西福祉健康センター,エキニシフクシケンコウセンター,"",駅西福祉健康センター,1602,"","",172014,"",石川県金沢市西念3-4-25,石川県,金沢市,西念3丁目,4番25号,"",36.589885,136.635378,"","",076-234-5103,"","","","",-,4000020172014,金沢市,月火水木金,08:30,17:15,休館日:土日、祝日、年末年始(12月29日～1月3日),乳幼児の各種健診、予防接種をはじめ、地域の人々の健康に関する種々のお手伝いや、介護保険業務、福祉保健サービスの申請・相談など、地域の福祉・保健に関する総合窓口です。,"","","","","","","","","","","","","","","","","",https://www4.city.kanazawa.lg.jp/soshikikarasagasu/izuminofukushikenkocenter/gyomugaiyo/4192.html,"","",""
202,172014,AA0000001078,石川県金沢市,金沢広域急病センター,カナザワコウイキキュウビョウセンター,"",金沢広域急病センター,1602,"","",172014,"",石川県金沢市西念３丁目４番２５ 駅西福祉健康センター1F,石川県,金沢市,西念3丁目,4番25号,"",36.589871,136.63553,"","",076-222-0099,"","","","",-,4000020172014,金沢市,月火水木金土日,19:30,23:00,休館日:なし　GW、年末年始などは診療時間が変更になります。,夜間の急な病気の時、安心して受診できる初期救急医療の施設です。小児科と内科の急病患者を診療します。原則として応急処置のみを行います。精密な検査や入院が必要な方には病院を紹介します。薬の処方は原則１日分です。翌日以降、かかりつけ医の診療時間内に診療を受けてください,"","","","","","","","","","","","","","","","","",https://www.kanazawa-kouiki.jp,"","",""
203,172014,AA0000001079,石川県金沢市,金沢市母子寡婦福祉連合会,カナザワシボシカフフクシレンゴウカイ,"",金沢市母子会,1499,"","",172014,"",石川県金沢市三社町1-44（石川県女性センター1階）,石川県,金沢市,三社町,1-44,石川県女性センター1階,36.571696,136.6449,"","",076-224-3417,"","","","",-,4000020172014,金沢市,月火水木金,09:00,16:30,休館日:土、日、祝日、年末年始,ひとり親家庭等の福祉向上と、幸せづくりのためにみんなで協力しあう団体です。各地区の団体の中でお互いが力を合わせ、支えあい、いたわりあい、助けあい、励ましあいながら幸せづくりにみんなで取り組んでいく集まりです。母子家庭・父子家庭及び寡婦の一人ひとりが持ついろいろな問題を、みんなの力と知恵を合わせ解決してゆく会です。,可,有,無,有,スロープ有、エレベータ有、エスカレータ無,有,"",有,無,無,有,有,有,有,有,無,有,http://kinbosh.jimdofree.com,"","",""
204,172014,AA0000001081,石川県金沢市,金沢市保健所,カナザワシホケンジョ,Kanazawa City Health Center,ホケンジョ,1606,金沢市西念3-4-25,"",172014,"",石川県金沢市西念3-4-25,石川県,金沢市,西念3,4-25,"",36.589885,136.635378,"","",076-234-5102,"","","","",-,4000020172014,金沢市,月火水木金,08:30,17:15,休館日:土日、祝日、年末年始(12月29日～1月3日),結核やエイズなどの感染症の予防と対策、環境衛生・食品衛生など生活環境に関する業務、医療機関や飲食店などの許認可や監視・指導を行っています。また、衛生上の試験検査及び大気汚染等の環境監視・検査を行っています。,可,有,無,有,エレベータ有,有,有,有,無,有,有,無,有,有,飲料のみ可,有,有,https://www4.city.kanazawa.lg.jp/soshikikarasagasu/chiikihokenka/1_1/index.html,"","",""
205,172014,AA0000000969,石川県金沢市,中村町小学校,ナカムラマチショウガッコウ,"","",1503,"","",172014,"",石川県金沢市中村町26-12,石川県,金沢市,中村町,26-12,"",36.560983,136.642059,"","",076-241-0716,"","","","",-,"",金沢市,"","","","","","","","","","","","","","","","","","","","","","",https://www14.schoolweb.ne.jp/swas/index.php?id=1710011,"","",""
206,172014,AA0000000970,石川県金沢市,十一屋小学校,ジュウイチヤショウガッコウ,"","",1503,"","",172014,"",石川県金沢市十一屋町3-45,石川県,金沢市,十一屋町,3-45,"",36.545327,136.660911,"","",076-241-7348,"","","","",-,"",金沢市,"","","","","","","","","","","","","","","","","","","","","","",https://www14.schoolweb.ne.jp/swas/index.php?id=1710012,"","",""
207,172014,AA0000000971,石川県金沢市,泉野小学校,イズミノショウガッコウ,"","",1503,"","",172014,"",石川県金沢市緑が丘4-64,石川県,金沢市,緑が丘,4-64,"",36.542714,136.654245,"","",076-241-0615,"","","","",-,"",金沢市,"","","","","","","","","","","","","","","","","","","","","","",https://www14.schoolweb.ne.jp/swas/index.php?id=1710009,"","",""
208,172014,AA0000000972,石川県金沢市,犀桜小学校,サイオウショウガッコウ,"","",1503,"","",172014,"",石川県金沢市菊川1-2-15,石川県,金沢市,菊川,1-2-15,"",36.55006,136.66199,"","",076-262-2355,"","","","",-,"",金沢市,"","","","","","","","","","","","","","","","","","","","","","",https://www14.schoolweb.ne.jp/swas/index.php?id=1710013,"","",""
209,172014,AA0000000973,石川県金沢市,小立野小学校,コダツノショウガッコウ,"","",1503,"","",172014,"",石川県金沢市小立野4-7-7,石川県,金沢市,小立野,4-7-7,"",36.551538,136.678696,"","",076-232-1283,"","","","",-,"",金沢市,"","","","","","","","","","","","","","","","","","","","","","",https://www14.schoolweb.ne.jp/swas/index.php?id=1710014,"","",""
210,172014,AA0000000974,石川県金沢市,兼六小学校,ケンロクショウガッコウ,"","",1503,"","",172014,"",石川県金沢市兼六元町7-15,石川県,金沢市,兼六元町,7-15,"",36.565889,136.666004,"","",076-231-7279,"","","","",-,"",金沢市,"","","","","","","","","","","","","","","","","","","","","","",https://www14.schoolweb.ne.jp/swas/index.php?id=1710015,"","",""
211,172014,AA0000000975,石川県金沢市,中央小学校,チュウオウショウガッコウ,"","",1503,"","",172014,"",石川県金沢市玉川町2-1,石川県,金沢市,玉川町,2-1,"",36.57005,136.65040,"","",076-262-8560,"","","","",-,"",金沢市,"","","","","","","","","","","","","","","","","","","","","","",https://www14.schoolweb.ne.jp/swas/index.php?id=1710016,"","",""
212,172014,AA0000000976,石川県金沢市,中央小学校芳斎分校,チュウオウショウガッコウホウサイブンコウ,"","",1503,"","",172014,"",石川県金沢市新竪町3-25,石川県,金沢市,新竪町,3-25,"",36.572524,136.649105,"","",076-221-1811,"","","","",-,"",金沢市,"","","","","","","","","","","","","","","","","","","","","","",https://www14.schoolweb.ne.jp/swas/index.php?id=1710017,"","",""
213,172014,AA0000000977,石川県金沢市,長田町小学校,ナガタマチショウガッコウ,"","",1503,"","",172014,"",石川県金沢市長田1-5-40,石川県,金沢市,長田,1-5-40,"",36.575357,136.6421,"","",076-231-7221,"","","","",-,"",金沢市,"","","","","","","","","","","","","","","","","","","","","","",https://www14.schoolweb.ne.jp/swas/index.php?id=1710018,"","",""
214,172014,AA0000000978,石川県金沢市,明成小学校,メイセイショウガッコウ,"","",1503,"","",172014,"",石川県金沢市瓢箪町5-48,石川県,金沢市,瓢箪町,5-48,"",36.576904,136.657166,"","",076-231-7438,"","","","",-,"",金沢市,"","","","","","","","","","","","","","","","","","","","","","",https://www14.schoolweb.ne.jp/swas/index.php?id=1710019,"","",""
215,172014,AA0000000979,石川県金沢市,諸江町小学校,モロエマチショウガッコウ,"","",1503,"","",172014,"",石川県金沢市北安江2-25-1,石川県,金沢市,北安江,2-25-1,"",36.588649,136.64793,"","",076-231-7389,"","","","",-,"",金沢市,"","","","","","","","","","","","","","","","","","","","","","",https://www14.schoolweb.ne.jp/swas/index.php?id=1710020,"","",""
217,172014,AA0000000981,石川県金沢市,森山町小学校,モリヤマチョウショウガッコウ,"","",1503,"","",172014,"",石川県金沢市森山2-13-50,石川県,金沢市,森山,2-13-50,"",36.578565,136.667576,"","",076-252-6251,"","","","",-,"",金沢市,"","","","","","","","","","","","","","","","","","","","","","",https://www14.schoolweb.ne.jp/swas/index.php?id=1710022,"","",""
218,172014,AA0000000982,石川県金沢市,浅野町小学校,アサノマチショウガッコウ,"","",1503,"","",172014,"",石川県金沢市京町35-1,石川県,金沢市,京町,35-1,"",36.581731,136.658818,"","",076-252-3573,"","","","",-,"",金沢市,"","","","","","","","","","","","","","","","","","","","","","",https://www14.schoolweb.ne.jp/swas/index.php?id=1710023,"","",""
219,172014,AA0000000983,石川県金沢市,小坂小学校,コサカショウガッコウ,"","",1503,"","",172014,"",石川県金沢市小坂町中142,石川県,金沢市,小坂町中,142,"",36.590108,136.677683,"","",076-252-6386,"","","","",-,"",金沢市,"","","","","","","","","","","","","","","","","","","","","","",https://www14.schoolweb.ne.jp/swas/index.php?id=1710024,"","",""
220,172014,AA0000000984,石川県金沢市,千坂小学校,チサカショウガッコウ,"","",1503,"","",172014,"",石川県金沢市千木1-125,石川県,金沢市,千木,1-125,"",36.605736,136.674977,"","",076-258-1270,"","","","",-,"",金沢市,"","","","","","","","","","","","","","","","","","","","","","",https://www14.schoolweb.ne.jp/swas/index.php?id=1710025,"","",""
221,172014,AA0000000985,石川県金沢市,夕日寺小学校,ユウヒデラショウガッコウ,"","",1503,"","",172014,"",石川県金沢市東長江町に17,石川県,金沢市,東長江町に,17,"",36.577568,136.692366,"","",076-252-4471,"","","","",-,"",金沢市,"","","","","","","","","","","","","","","","","","","","","","",https://www14.schoolweb.ne.jp/swas/index.php?id=1710026,"","",""
222,172014,AA0000000986,石川県金沢市,大浦小学校,オオウラショウガッコウ,"","",1503,"","",172014,"",石川県金沢市大浦町ヌ87,石川県,金沢市,大浦町ヌ,87,"",36.623281,136.653287,"","",076-238-2025,"","","","",-,"",金沢市,"","","","","","","","","","","","","","","","","","","","","","",https://www14.schoolweb.ne.jp/swas/index.php?id=1710027,"","",""
223,172014,AA0000000987,石川県金沢市,浅野川小学校,アサノガワショウガッコウ,"","",1503,"","",172014,"",石川県金沢市須崎町チ42,石川県,金沢市,須崎町チ,42,"",36.621053,136.641726,"","",076-238-2034,"","","","",-,"",金沢市,"","","","","","","","","","","","","","","","","","","","","","",https://www14.schoolweb.ne.jp/swas/index.php?id=1710028,"","",""
224,172014,AA0000000988,石川県金沢市,鞍月小学校,クラツキショウガッコウ,"","",1503,"","",172014,"",石川県金沢市南新保町リ27-1,石川県,金沢市,南新保町リ,27-1,"",36.601836,136.632494,"","",076-237-6447,"","","","",-,"",金沢市,"","","","","","","","","","","","","","","","","","","","","","",https://www14.schoolweb.ne.jp/swas/index.php?id=1710029,"","",""
225,172014,AA0000000989,石川県金沢市,粟崎小学校,アワガサキショウガッコウ,"","",1503,"","",172014,"",石川県金沢市粟崎町ヘ78,石川県,金沢市,粟崎町ヘ,78,"",36.621217,136.624622,"","",076-238-2234,"","","","",-,"",金沢市,"","","","","","","","","","","","","","","","","","","","","","",https://www14.schoolweb.ne.jp/swas/index.php?id=1710030,"","",""
226,172014,AA0000000990,石川県金沢市,大野町小学校,オオノマチショウガッコウ,"","",1503,"","",172014,"",石川県金沢市大野町1-15,石川県,金沢市,大野町,1-15,"",36.610354,136.60336,"","",076-267-1466,"","","","",-,"",金沢市,"","","","","","","","","","","","","","","","","","","","","","",https://www14.schoolweb.ne.jp/swas/index.php?id=1710031,"","",""
227,172014,AA0000000991,石川県金沢市,金石町小学校,カナイワマチショウガッコウ,"","",1503,"","",172014,"",石川県金沢市金石北4-1-1,石川県,金沢市,金石北,4-1-1,"",36.608707,136.598972,"","",076-268-1313,"","","","",-,"",金沢市,"","","","","","","","","","","","","","","","","","","","","","",https://www14.schoolweb.ne.jp/swas/index.php?id=1710032,"","",""
228,172014,AA0000000992,石川県金沢市,大徳小学校,ダイトクショウガッコウ,"","",1503,"","",172014,"",石川県金沢市松村6-200,石川県,金沢市,松村,6-200,"",36.591196,136.610027,"","",076-267-0564,"","","","",-,"",金沢市,"","","","","","","","","","","","","","","","","","","","","","",https://www14.schoolweb.ne.jp/swas/index.php?id=1710033,"","",""
229,172014,AA0000000993,石川県金沢市,戸板小学校,トイタショウガッコウ,"","",1503,"","",172014,"",石川県金沢市戸板1-1,石川県,金沢市,戸板,1-1,"",36.579213,136.622458,"","",076-231-5485,"","","","",-,"",金沢市,"","","","","","","","","","","","","","","","","","","","","","",https://www14.schoolweb.ne.jp/swas/index.php?id=1710034,"","",""
230,172014,AA0000000994,石川県金沢市,緑小学校,ミドリショウガッコウ,"","",1503,"","",172014,"",石川県金沢市みどり1-166,石川県,金沢市,みどり,1-166,"",36.570126,136.590808,"","",076-249-0100,"","","","",-,"",金沢市,"","","","","","","","","","","","","","","","","","","","","","",https://www14.schoolweb.ne.jp/swas/index.php?id=1710035,"","",""
231,172014,AA0000000995,石川県金沢市,押野小学校,オシノショウガッコウ,"","",1503,"","",172014,"",石川県金沢市八日市1-176,石川県,金沢市,八日市,1-176,"",36.54594,136.609396,"","",076-241-4197,"","","","",-,"",金沢市,"","","","","","","","","","","","","","","","","","","","","","",https://www14.schoolweb.ne.jp/swas/index.php?id=1710036,"","",""
232,172014,AA0000000996,石川県金沢市,米丸小学校,ヨネマルショウガッコウ,"","",1503,"","",172014,"",石川県金沢市東力町ニ155,石川県,金沢市,東力町ニ,155,"",36.565682,136.619971,"","",076-291-1361,"","","","",-,"",金沢市,"","","","","","","","","","","","","","","","","","","","","","",https://www14.schoolweb.ne.jp/swas/index.php?id=1710037,"","",""
233,172014,AA0000000997,石川県金沢市,三馬小学校,ミンマショウガッコウ,"","",1503,"","",172014,"",石川県金沢市久安6-154,石川県,金沢市,久安,6-154,"",36.543585,136.633621,"","",076-243-2261,"","","","",-,"",金沢市,"","","","","","","","","","","","","","","","","","","","","","",https://www14.schoolweb.ne.jp/swas/index.php?id=1710038,"","",""
234,172014,AA0000000998,石川県金沢市,富樫小学校,トガシショウガッコウ,"","",1503,"","",172014,"",石川県金沢市山科3-6-60,石川県,金沢市,山科,3-6-60,"",36.529476,136.645712,"","",076-243-2533,"","","","",-,"",金沢市,"","","","","","","","","","","","","","","","","","","","","","",https://www14.schoolweb.ne.jp/swas/index.php?id=1710039,"","",""
235,172014,AA0000000999,石川県金沢市,額小学校,ヌカショウガッコウ,"","",1503,"","",172014,"",石川県金沢市額乙丸町イ41,石川県,金沢市,額乙丸町イ,41,"",36.510489,136.621867,"","",076-298-0167,"","","","",-,"",金沢市,"","","","","","","","","","","","","","","","","","","","","","",https://www14.schoolweb.ne.jp/swas/index.php?id=1710040,"","",""
236,172014,AA0000001000,石川県金沢市,内川小学校,ウチカワショウガッコウ,"","",1503,"","",172014,"",石川県金沢市別所町ヰ18,石川県,金沢市,別所町ヰ,18,"",36.504427,136.67601,"","",076-241-4039,"","","","",-,"",金沢市,"","","","","","","","","","","","","","","","","","","","","","",https://www14.schoolweb.ne.jp/swas/index.php?id=1720017,"","",""
237,172014,AA0000001001,石川県金沢市,犀川小学校,サイガワショウガッコウ,"","",1503,"","",172014,"",石川県金沢市末町2-148,石川県,金沢市,末町,2-148,"",36.51151,136.698041,"","",076-229-0008,"","","","",-,"",金沢市,"","","","","","","","","","","","","","","","","","","","","","",https://www14.schoolweb.ne.jp/swas/index.php?id=1710042,"","",""
238,172014,AA0000001002,石川県金沢市,湯涌小学校,ユワクショウガッコウ,"","",1503,"","",172014,"",石川県金沢市湯涌荒屋町23,石川県,金沢市,湯涌荒屋町,23,"",36.491961,136.752856,"","",076-235-1039,"","","","",-,"",金沢市,"","","","","","","","","","","","","","","","","","","","","","",https://www14.schoolweb.ne.jp/swas/index.php?id=1720015,"","",""
239,172014,AA0000001003,石川県金沢市,田上小学校,タガミショウガッコウ,"","",1503,"","",172014,"",石川県金沢市田上の里2-1,石川県,金沢市,田上の里,2-1,"",36.546169,136.692984,"","",076-221-3353,"","","","",-,"",金沢市,"","","","","","","","","","","","","","","","","","","","","","",https://www14.schoolweb.ne.jp/swas/index.php?id=1710008,"","",""
240,172014,AA0000001004,石川県金沢市,医王山小学校,イオウゼンショウガッコウ,"","",1503,"","",172014,"",石川県金沢市二俣町さ21,石川県,金沢市,二俣町さ,21,"",36.55574,136.759848,"","",076-236-1013,"","","","",-,"",金沢市,"","","","","","","","","","","","","","","","","","","","","","",https://www14.schoolweb.ne.jp/swas/index.php?id=1710044,"","",""
241,172014,AA0000001005,石川県金沢市,森本小学校,モリモトショウガッコウ,"","",1503,"","",172014,"",石川県金沢市南森本町イ111,石川県,金沢市,南森本町イ,111,"",36.622793,136.693039,"","",076-258-0048,"","","","",-,"",金沢市,"","","","","","","","","","","","","","","","","","","","","","",https://www14.schoolweb.ne.jp/swas/index.php?id=1710045,"","",""
242,172014,AA0000001006,石川県金沢市,花園小学校,ハナゾノショウガッコウ,"","",1503,"","",172014,"",石川県金沢市今町ヌ34,石川県,金沢市,今町ヌ,34,"",36.632644,136.708209,"","",076-258-0133,"","","","",-,"",金沢市,"","","","","","","","","","","","","","","","","","","","","","",https://www14.schoolweb.ne.jp/swas/index.php?id=1710046,"","",""
243,172014,AA0000001007,石川県金沢市,不動寺小学校,フドウジショウガッコウ,"","",1503,"","",172014,"",石川県金沢市不動寺町イ33,石川県,金沢市,不動寺町イ,33,"",36.608454,136.708621,"","",076-258-0221,"","","","",-,"",金沢市,"","","","","","","","","","","","","","","","","","","","","","",https://www14.schoolweb.ne.jp/swas/index.php?id=1710047,"","",""
245,172014,AA0000001009,石川県金沢市,南小立野小学校,ミナミコダツノショウガッコウ,"","",1503,"","",172014,"",石川県金沢市涌波2-5-1,石川県,金沢市,涌波,2-5-1,"",36.537231,136.681246,"","",076-261-9414,"","","","",-,"",金沢市,"","","","","","","","","","","","","","","","","","","","","","",https://www14.schoolweb.ne.jp/swas/index.php?id=1710049,"","",""
246,172014,AA0000001010,石川県金沢市,伏見台小学校,フシミダイショウガッコウ,"","",1503,"","",172014,"",石川県金沢市窪5-335,石川県,金沢市,窪,5-335,"",36.526893,136.637924,"","",076-244-5091,"","","","",-,"",金沢市,"","","","","","","","","","","","","","","","","","","","","","",https://www14.schoolweb.ne.jp/swas/index.php?id=1710050,"","",""
247,172014,AA0000001011,石川県金沢市,扇台小学校,オウギダイショウガッコウ,"","",1503,"","",172014,"",石川県金沢市馬替1-34,石川県,金沢市,馬替,1-34,"",36.522924,136.625436,"","",076-298-2711,"","","","",-,"",金沢市,"","","","","","","","","","","","","","","","","","","","","","",https://www14.schoolweb.ne.jp/swas/index.php?id=1710051,"","",""
248,172014,AA0000001012,石川県金沢市,木曳野小学校,キビキノショウガッコウ,"","",1503,"","",172014,"",石川県金沢市木曳野1-1,石川県,金沢市,木曳野,1-1,"",36.597811,136.603866,"","",076-268-7332,"","","","",-,"",金沢市,"","","","","","","","","","","","","","","","","","","","","","",https://www14.schoolweb.ne.jp/swas/index.php?id=1710052,"","",""
249,172014,AA0000001013,石川県金沢市,三和小学校,ミワショウガッコウ,"","",1503,"","",172014,"",石川県金沢市矢木1-74,石川県,金沢市,矢木,1-74,"",36.557878,136.596713,"","",076-240-0088,"","","","",-,"",金沢市,"","","","","","","","","","","","","","","","","","","","","","",https://www14.schoolweb.ne.jp/swas/index.php?id=1710053,"","",""
250,172014,AA0000001014,石川県金沢市,長坂台小学校,ナガサカダイショウガッコウ,"","",1503,"","",172014,"",石川県金沢市長坂3-14-1,石川県,金沢市,長坂,3-14-1,"",36.535006,136.657517,"","",076-243-7561,"","","","",-,"",金沢市,"","","","","","","","","","","","","","","","","","","","","","",https://www14.schoolweb.ne.jp/swas/index.php?id=1710054,"","",""
251,172014,AA0000001015,石川県金沢市,新神田小学校,シンカンダショウガッコウ,"","",1503,"","",172014,"",石川県金沢市新神田1-10-58,石川県,金沢市,新神田,1-10-58,"",36.565363,136.634937,"","",076-291-3821,"","","","",-,"",金沢市,"","","","","","","","","","","","","","","","","","","","","","",https://www14.schoolweb.ne.jp/swas/index.php?id=1710055,"","",""
252,172014,AA0000001016,石川県金沢市,西南部小学校,セイナンブショウガッコウ,"","",1503,"","",172014,"",石川県金沢市八日市出町304,石川県,金沢市,八日市出町,304,"",36.555475,136.608368,"","",076-240-2501,"","","","",-,"",金沢市,"","","","","","","","","","","","","","","","","","","","","","",https://www14.schoolweb.ne.jp/swas/index.php?id=1710056,"","",""
253,172014,AA0000001017,石川県金沢市,米泉小学校,ヨネイズミショウガッコウ,"","",1503,"","",172014,"",石川県金沢市米泉町4-133-2,石川県,金沢市,米泉町,4-133-2,"",36.545563,136.627927,"","",076-242-0551,"","","","",-,"",金沢市,"","","","","","","","","","","","","","","","","","","","","","",https://www14.schoolweb.ne.jp/swas/index.php?id=1710057,"","",""
254,172014,AA0000001018,石川県金沢市,四十万小学校,シジマショウガッコウ,"","",1503,"","",172014,"",石川県金沢市四十万3-186,石川県,金沢市,四十万,3-186,"",36.502931,136.617579,"","",076-298-3015,"","","","",-,"",金沢市,"","","","","","","","","","","","","","","","","","","","","","",https://www14.schoolweb.ne.jp/swas/index.php?id=1710058,"","",""
255,172014,AA0000001019,石川県金沢市,西小学校,ニシショウガッコウ,"","",1503,"","",172014,"",石川県金沢市駅西新町3-15-1,石川県,金沢市,駅西新町,3-15-1,"",36.592415,136.636825,"","",076-263-5338,"","","","",-,"",金沢市,"","","","","","","","","","","","","","","","","","","","","","",https://www14.schoolweb.ne.jp/swas/index.php?id=1710059,"","",""
256,172014,AA0000001020,石川県金沢市,安原小学校,ヤスハラショウガッコウ,"","",1503,"","",172014,"",石川県金沢市福増町北1087,石川県,金沢市,福増町北,1087,"",36.566951,136.579401,"","",076-249-4471,"","","","",-,"",金沢市,"","","","","","","","","","","","","","","","","","","","","","",https://www14.schoolweb.ne.jp/swas/index.php?id=1710060,"","",""
257,172014,AA0000001021,石川県金沢市,杜の里小学校,モリノサトショウガッコウ,"","",1503,"","",172014,"",石川県金沢市若松町3-282,石川県,金沢市,若松町,3-282,"",36.55742,136.686323,"","",076-222-1150,"","","","",-,"",金沢市,"","","","","","","","","","","","","","","","","","","","","","",https://www14.schoolweb.ne.jp/swas/index.php?id=1710061,"","",""
258,172014,AA0000001022,石川県金沢市,泉小学校,イズミショウガッコウ,"","",1503,"","",172014,"",石川県金沢市弥生1-26-1,石川県,金沢市,弥生,1-26-1,"",36.549168,136.645262,"","",076-241-8318,"","","","",-,"",金沢市,"","","","","","","","","","","","","","","","","","","","","","",https://www14.schoolweb.ne.jp/swas/index.php?id=1710010,"","",""
259,172014,AA0000030669,石川県金沢市,朝霧台小学校,アサギリダイショウガッコウ,"","",1503,"","",172014,"",石川県金沢市田上本町4-28,石川県,金沢市,田上本町,4-28,"",36.5373355,136.6940063,"","",076-255-6478,"","","","",-,"",金沢市,"","","","","","","","","","","","","","","","","","","","","","",https://www14.schoolweb.ne.jp/swas/index.php?id=1710062,"","",""
260,172014,AA0000001023,石川県金沢市,泉中学校,イズミチュウガッコウ,"","",1504,"","",172014,"",石川県金沢市弥生1-26-1,石川県,金沢市,弥生,1-26-1,"",36.5491683,136.6452618,"","",076-242-2411,"","","","",-,"",金沢市,"","","","","","","","","","","","","","","","","","","","","","",https://www14.schoolweb.ne.jp/swas/index.php?id=1720006,"","",""
261,172014,AA0000001024,石川県金沢市,野田中学校,ノダチュウガッコウ,"","",1504,"","",172014,"",石川県金沢市若草1-23,石川県,金沢市,若草,1-23,"",36.5442469,136.6576361,"","",076-241-5191,"","","","",-,"",金沢市,"","","","","","","","","","","","","","","","","","","","","","",https://www14.schoolweb.ne.jp/swas/index.php?id=1720004,"","",""
262,172014,AA0000001025,石川県金沢市,城南中学校,ジョウナンチュウガッコウ,"","",1504,"","",172014,"",石川県金沢市城南1-24-1,石川県,金沢市,城南,1-24-1,"",36.5436748,136.674374,"","",076-221-6979,"","","","",-,"",金沢市,"","","","","","","","","","","","","","","","","","","","","","",https://www14.schoolweb.ne.jp/swas/index.php?id=1720007,"","",""
263,172014,AA0000001026,石川県金沢市,紫錦台中学校,シキンダイチュウガッコウ,"","",1504,"","",172014,"",石川県金沢市飛梅町3-30,石川県,金沢市,飛梅町,3-30,"",36.5580619,136.6688572,"","",076-262-7268,"","","","",-,"",金沢市,"","","","","","","","","","","","","","","","","","","","","","",https://www14.schoolweb.ne.jp/swas/index.php?id=1720008,"","",""
264,172014,AA0000001027,石川県金沢市,兼六中学校,ケンロクチュウガッコウ,"","",1504,"","",172014,"",石川県金沢市田井町12-12,石川県,金沢市,田井町,12-12,"",36.5596451,136.6802676,"","",076-263-2458,"","","","",-,"",金沢市,"","","","","","","","","","","","","","","","","","","","","","",https://www14.schoolweb.ne.jp/swas/index.php?id=1720001,"","",""
265,172014,AA0000001028,石川県金沢市,長町中学校芳斎分校,ナガマチチュウガッコウホウサイブンコウ,"","",1504,"","",172014,"",石川県金沢市小将町1-15,石川県,金沢市,小将町,1-15,"",36.5643751,136.664685,"","",076-262-6272,"","","","",-,"",金沢市,"","","","","","","","","","","","","","","","","","","","","","",https://www14.schoolweb.ne.jp/swas/index.php?id=1720010,"","",""
266,172014,AA0000001029,石川県金沢市,高岡中学校,タカオカチュウガッコウ,"","",1504,"","",172014,"",石川県金沢市新神田1-10-1,石川県,金沢市,新神田,1-10-1,"",36.5654605,136.6362173,"","",076-291-3177,"","","","",-,"",金沢市,"","","","","","","","","","","","","","","","","","","","","","",https://www14.schoolweb.ne.jp/swas/index.php?id=1720011,"","",""
267,172014,AA0000001030,石川県金沢市,鳴和中学校,ナルワチュウガッコウ,"","",1504,"","",172014,"",石川県金沢市鳴和2-10-60,石川県,金沢市,鳴和,2-10-60,"",36.586661,136.6713893,"","",076-252-5228,"","","","",-,"",金沢市,"","","","","","","","","","","","","","","","","","","","","","",https://www14.schoolweb.ne.jp/swas/index.php?id=1720012,"","",""
